{"code":"MDA","translations":[{"name":"Republica Moldova","locale":"ro"},{"name":"Республика Молдова","locale":"ru"},{"name":"Moldova Rep of","locale":"en"}],"regions":[{"lat":"46.16667","lng":"28.66667","localities":[{"lat":"46.29456","lng":"28.6565","translations":[{"name":"Comrat","locale":"en"},{"name":"Комрат","locale":"ru"},{"locale":"ro","name":"Comrat"}]},{"lat":"45.59692","lng":"28.45039","translations":[{"name":"Alexandru Ioan Cuza","locale":"en"},{"name":"Суворово","locale":"ru"},{"locale":"ro","name":"Alexandru Ioan Cuza"}]},{"lat":"46.02539","lng":"28.56835","translations":[{"name":"Alexeevca","locale":"en"},{"name":"Алексеевка","locale":"ru"},{"locale":"ro","name":"Alexeevca"}]},{"lat":"46.25158","lng":"28.83814","translations":[{"name":"Avdarma","locale":"en"},{"name":"Avdarma","locale":"ru"},{"locale":"ro","name":"Avdarma"}]},{"lat":"45.93387","lng":"28.57603","translations":[{"name":"Balabanu","locale":"en"},{"name":"Балабан","locale":"ru"},{"locale":"ro","name":"Balabanu"}]},{"lat":"46.09623","lng":"28.67635","translations":[{"name":"Baurci","locale":"en"},{"name":"Баурчи","locale":"ru"},{"locale":"ro","name":"Baurci"}]},{"lat":"46.16913","lng":"28.64695","translations":[{"name":"Beşalma","locale":"en"},{"name":"Бешалма","locale":"ru"},{"locale":"ro","name":"Beşalma"}]},{"lat":"46.11916","lng":"28.87439","translations":[{"name":"Beşghioz","locale":"en"},{"name":"Бешгиоз","locale":"ru"},{"locale":"ro","name":"Beşghioz"}]},{"lat":"46.36554","lng":"28.6625","translations":[{"name":"Bugeac","locale":"en"},{"name":"Комрат","locale":"ru"},{"locale":"ro","name":"Bugeac"}]},{"lat":"46.00729","lng":"28.66272","translations":[{"name":"Cazaclia","locale":"en"},{"name":"Казаклия","locale":"ru"},{"locale":"ro","name":"Cazaclia"}]},{"lat":"46.06169","lng":"28.83078","translations":[{"name":"Ceadîr-Lunga","locale":"en"},{"name":"Чадыр-Лунга","locale":"ru"},{"locale":"ro","name":"Ceadîr-Lunga"}]},{"lat":"46.08494","lng":"28.51184","translations":[{"name":"Chioşelia Rusă","locale":"en"},{"name":"Русская Киселия","locale":"ru"},{"locale":"ro","name":"Chioşelia Rusă"}]},{"lat":"46.20924","lng":"28.94521","translations":[{"name":"Chiriet-Lunga","locale":"en"},{"name":"Кириет-Лунга","locale":"ru"},{"locale":"ro","name":"Chiriet-Lunga"}]},{"lat":"45.81556","lng":"28.57338","translations":[{"name":"Chirilovca","locale":"en"},{"name":"Кирилловка","locale":"ru"},{"locale":"ro","name":"Chirilovca"}]},{"lat":"46.23062","lng":"28.64755","translations":[{"name":"Chirsova","locale":"en"},{"name":"Кирсово","locale":"ru"},{"locale":"ro","name":"Chirsova"}]},{"lat":"46.36587","lng":"28.82059","translations":[{"name":"Cioc Maidan","locale":"en"},{"name":"Чок-Майдан","locale":"ru"},{"locale":"ro","name":"Cioc Maidan"}]},{"lat":"45.54694","lng":"28.38115","translations":[{"name":"Cişmichioi","locale":"en"},{"name":"Чишмикиой","locale":"ru"},{"locale":"ro","name":"Cişmichioi"}]},{"lat":"46.10744","lng":"28.59303","translations":[{"name":"Congaz","locale":"en"},{"name":"Конгаз","locale":"ru"},{"locale":"ro","name":"Congaz"}]},{"lat":"46.31229","lng":"28.57169","translations":[{"name":"Congazcicul de Jos","locale":"en"},{"name":"Конгазчик-Нижний","locale":"ru"},{"locale":"ro","name":"Congazcicul de Jos"}]},{"lat":"46.33158","lng":"28.56418","translations":[{"name":"Congazcicul de Sus","locale":"en"},{"name":"Конгазчик Верхний","locale":"ru"},{"locale":"ro","name":"Congazcicul de Sus"}]},{"lat":"45.84916","lng":"28.69201","translations":[{"name":"Copceac","locale":"en"},{"name":"Копчак","locale":"ru"},{"locale":"ro","name":"Copceac"}]},{"lat":"46.00715","lng":"28.57036","translations":[{"name":"Cortenul Nou","locale":"en"},{"name":"Новый Кортин","locale":"ru"},{"locale":"ro","name":"Cortenul Nou"}]},{"lat":"46.16203","lng":"28.51417","translations":[{"name":"Cotovscoe","locale":"en"},{"name":"Котовское","locale":"ru"},{"locale":"ro","name":"Cotovscoe"}]},{"lat":"45.6825","lng":"28.47917","translations":[{"name":"Cătun Vulcăneşti","locale":"en"},{"name":"Cătun Vulcăneşti","locale":"ru"},{"locale":"ro","name":"Cătun Vulcăneşti"}]},{"lat":"46.42207","lng":"28.61791","translations":[{"name":"Dezghingea","locale":"en"},{"name":"Дезгинже","locale":"ru"},{"locale":"ro","name":"Dezghingea"}]},{"lat":"46.32724","lng":"28.51537","translations":[{"name":"Duduleşti","locale":"en"},{"name":"Дудулешты","locale":"ru"},{"locale":"ro","name":"Duduleşti"}]},{"lat":"45.53874","lng":"28.44169","translations":[{"name":"Etulia","locale":"en"},{"name":"Етулия","locale":"ru"},{"locale":"ro","name":"Etulia"}]},{"lat":"45.5162","lng":"28.43801","translations":[{"name":"Etulia Nouă","locale":"en"},{"name":"Новая Етулия","locale":"ru"},{"locale":"ro","name":"Etulia Nouă"}]},{"lat":"46.23235","lng":"28.77441","translations":[{"name":"Ferapontievca","locale":"en"},{"name":"Ферапонтьевка","locale":"ru"},{"locale":"ro","name":"Ferapontievca"}]},{"lat":"46.10836","lng":"28.76617","translations":[{"name":"Gaidar","locale":"en"},{"name":"Гайдар","locale":"ru"},{"locale":"ro","name":"Gaidar"}]},{"lat":"46.33333","lng":"28.56667","translations":[{"name":"Imeni Kirsev","locale":"en"},{"name":"Imeni Kirsev","locale":"ru"},{"locale":"ro","name":"Imeni Kirsev"}]},{"lat":"46.17905","lng":"28.87277","translations":[{"name":"Joltai","locale":"en"},{"name":"Джолтай","locale":"ru"},{"locale":"ro","name":"Joltai"}]},{"lat":"46.01743","lng":"28.56822","translations":[{"name":"Svetlîi","locale":"en"},{"name":"Светлый","locale":"ru"},{"locale":"ro","name":"Svetlîi"}]},{"lat":"46.18546","lng":"28.76634","translations":[{"name":"Tomai","locale":"en"},{"name":"Томай","locale":"ru"},{"locale":"ro","name":"Tomai"}]},{"lat":"45.68492","lng":"28.40613","translations":[{"name":"Vulcăneşti","locale":"en"},{"name":"Вулканешты","locale":"ru"},{"locale":"ro","name":"Vulcăneşti"}]}],"translations":[{"name":"Găgăuzia","locale":"en"},{"name":"Găgăuzia","locale":"ru"},{"locale":"ro","name":"Găgăuzia"}]},{"lat":"46.83333","lng":"29.45","localities":[{"lat":"46.83156","lng":"29.47769","translations":[{"name":"Tighina","locale":"en"},{"name":"Бендеры","locale":"ru"},{"locale":"ro","name":"Tighina"}]},{"lat":"46.78156","lng":"29.42826","translations":[{"name":"Gîsca","locale":"en"},{"name":"Гиска","locale":"ru"},{"locale":"ro","name":"Gîsca"}]}],"translations":[{"name":"Bender Municipality","locale":"en"},{"name":"Municipiul Bender","locale":"ru"},{"locale":"ro","name":"Municipiul Bender"}]},{"lat":"47.78333","lng":"27.91667","localities":[{"lat":"47.76314","lng":"27.92932","translations":[{"name":"Bălţi","locale":"en"},{"name":"Бельцы","locale":"ru"},{"locale":"ro","name":"Bălți"}]},{"lat":"47.78177","lng":"28.01738","translations":[{"name":"Elizaveta","locale":"en"},{"name":"Елизаветовка","locale":"ru"},{"locale":"ro","name":"Elizaveta"}]},{"lat":"47.71899","lng":"28.02712","translations":[{"name":"Mîndreştii Noi","locale":"en"},{"name":"Новые Мындрешты","locale":"ru"},{"locale":"ro","name":"Mîndreştii Noi"}]},{"lat":"47.76021","lng":"27.89594","translations":[{"name":"Pămînteni","locale":"en"},{"name":"Пэмынтены","locale":"ru"},{"locale":"ro","name":"Pămînteni"}]}],"translations":[{"name":"Municipiul Bălţi","locale":"en"},{"name":"Municipiul Bălţi","locale":"ru"},{"locale":"ro","name":"Municipiul Bălţi"}]},{"lat":"47","lng":"28.83333","localities":[{"lat":"47.00556","lng":"28.8575","translations":[{"name":"Chisinau","locale":"en"},{"name":"Кишинёв","locale":"ru"},{"locale":"ro","name":"Chișinău"}]},{"lat":"46.98658","lng":"28.93993","translations":[{"name":"Bubuieci","locale":"en"},{"name":"Бубуечь","locale":"ru"},{"locale":"ro","name":"Bubuieci"}]},{"lat":"47.06601","lng":"29.00461","translations":[{"name":"Budeşti","locale":"en"},{"name":"Будешты","locale":"ru"},{"locale":"ro","name":"Budeşti"}]},{"lat":"47.08337","lng":"28.90945","translations":[{"name":"Buneţi","locale":"en"},{"name":"Бунец","locale":"ru"},{"locale":"ro","name":"Buneţi"}]},{"lat":"46.965","lng":"28.93727","translations":[{"name":"Bîc","locale":"en"},{"name":"Бык","locale":"ru"},{"locale":"ro","name":"Bîc"}]},{"lat":"46.91404","lng":"28.89908","translations":[{"name":"Băcioi","locale":"en"},{"name":"Бачой","locale":"ru"},{"locale":"ro","name":"Băcioi"}]},{"lat":"47.0658","lng":"29.03504","translations":[{"name":"Bălţata de Sus","locale":"en"},{"name":"Верхняя Балцата","locale":"ru"},{"locale":"ro","name":"Bălţata de Sus"}]},{"lat":"47.01583","lng":"28.74111","translations":[{"name":"Cartuşe","locale":"en"},{"name":"Cartuşe","locale":"ru"},{"locale":"ro","name":"Cartuşe"}]},{"lat":"47.09441","lng":"28.95245","translations":[{"name":"Ceroborta","locale":"en"},{"name":"Чероборта","locale":"ru"},{"locale":"ro","name":"Ceroborta"}]},{"lat":"47.06507","lng":"28.92464","translations":[{"name":"Cheltuitori","locale":"en"},{"name":"Келтуитор","locale":"ru"},{"locale":"ro","name":"Cheltuitori"}]},{"lat":"46.92152","lng":"29.03815","translations":[{"name":"Chetrosu","locale":"en"},{"name":"Кетрос","locale":"ru"},{"locale":"ro","name":"Chetrosu"}]},{"lat":"47.13","lng":"28.88937","translations":[{"name":"Ciorescu","locale":"en"},{"name":"Крикова-Ноуэ","locale":"ru"},{"locale":"ro","name":"Ciorescu"}]},{"lat":"46.97648","lng":"28.819","translations":[{"name":"Codru","locale":"en"},{"name":"Скиноса","locale":"ru"},{"locale":"ro","name":"Codru"}]},{"lat":"47.04238","lng":"28.95666","translations":[{"name":"Coloniţa","locale":"en"},{"name":"Колоница","locale":"ru"},{"locale":"ro","name":"Coloniţa"}]},{"lat":"46.955","lng":"28.82944","translations":[{"name":"Costiujeni","locale":"en"},{"name":"Costiujeni","locale":"ru"},{"locale":"ro","name":"Costiujeni"}]},{"lat":"47.13835","lng":"28.86156","translations":[{"name":"Cricova","locale":"en"},{"name":"Криково","locale":"ru"},{"locale":"ro","name":"Cricova"}]},{"lat":"47.07969","lng":"28.97297","translations":[{"name":"Cruzeşti","locale":"en"},{"name":"Крузешты","locale":"ru"},{"locale":"ro","name":"Cruzeşti"}]},{"lat":"46.88431","lng":"28.98776","translations":[{"name":"Dobrogea","locale":"en"},{"name":"Добружа","locale":"ru"},{"locale":"ro","name":"Dobrogea"}]},{"lat":"47.02156","lng":"28.76303","translations":[{"name":"Durleşti","locale":"en"},{"name":"Дурлешты","locale":"ru"},{"locale":"ro","name":"Durleşti"}]},{"lat":"46.89819","lng":"28.90239","translations":[{"name":"Frumuşica","locale":"en"},{"name":"Фрумушика","locale":"ru"},{"locale":"ro","name":"Frumuşica"}]},{"lat":"47.14571","lng":"28.89632","translations":[{"name":"Făureşti","locale":"en"},{"name":"Фаурешты","locale":"ru"},{"locale":"ro","name":"Făureşti"}]},{"lat":"47.09428","lng":"28.77299","translations":[{"name":"Ghidighici","locale":"en"},{"name":"Гидигич","locale":"ru"},{"locale":"ro","name":"Ghidighici"}]},{"lat":"47.13415","lng":"28.90945","translations":[{"name":"Goian","locale":"en"},{"name":"Гоян","locale":"ru"},{"locale":"ro","name":"Goian"}]},{"lat":"47.11721","lng":"28.89984","translations":[{"name":"Goianul Nou","locale":"en"},{"name":"Новые Гояны","locale":"ru"},{"locale":"ro","name":"Goianul Nou"}]},{"lat":"47.09855","lng":"28.82478","translations":[{"name":"Grătieşti","locale":"en"},{"name":"Гратиешты","locale":"ru"},{"locale":"ro","name":"Grătieşti"}]},{"lat":"46.97083","lng":"28.97028","translations":[{"name":"Hatmana","locale":"en"},{"name":"Hatmana","locale":"ru"},{"locale":"ro","name":"Hatmana"}]},{"lat":"47.11911","lng":"28.79755","translations":[{"name":"Hulboaca","locale":"en"},{"name":"Гульбоака","locale":"ru"},{"locale":"ro","name":"Hulboaca"}]},{"lat":"46.99648","lng":"28.97645","translations":[{"name":"Humuleşti","locale":"en"},{"name":"Малохорузино","locale":"ru"},{"locale":"ro","name":"Humuleşti"}]},{"lat":"47.01115","lng":"28.88772","translations":[{"name":"Otovaska-Byk","locale":"en"},{"name":"Otovaska-Byk","locale":"ru"},{"locale":"ro","name":"Otovaska-Byk"}]},{"lat":"46.90906","lng":"28.94214","translations":[{"name":"Revaca","locale":"en"},{"name":"Ревака","locale":"ru"},{"locale":"ro","name":"Revaca"}]},{"lat":"46.90629","lng":"28.85782","translations":[{"name":"Străisteni","locale":"en"},{"name":"Страйстены","locale":"ru"},{"locale":"ro","name":"Străisteni"}]},{"lat":"47.09643","lng":"28.86791","translations":[{"name":"Stăuceni","locale":"en"},{"name":"Ставчены","locale":"ru"},{"locale":"ro","name":"Stăuceni"}]},{"lat":"47.1075","lng":"29.05444","translations":[{"name":"Syruchan","locale":"en"},{"name":"Syruchan","locale":"ru"},{"locale":"ro","name":"Syruchan"}]},{"lat":"46.91557","lng":"28.96673","translations":[{"name":"Sîngera","locale":"en"},{"name":"Сынжера","locale":"ru"},{"locale":"ro","name":"Sîngera"}]},{"lat":"47.06203","lng":"28.94473","translations":[{"name":"Tohatin","locale":"en"},{"name":"Тогатино","locale":"ru"},{"locale":"ro","name":"Tohatin"}]},{"lat":"47.07164","lng":"28.68081","translations":[{"name":"Truşeni","locale":"en"},{"name":"Трушены","locale":"ru"},{"locale":"ro","name":"Truşeni"}]},{"lat":"47.09009","lng":"29.0757","translations":[{"name":"Vadul lui Vodă","locale":"en"},{"name":"Вадул-Луй-Водэ","locale":"ru"},{"locale":"ro","name":"Vadul lui Vodă"}]},{"lat":"47.0746","lng":"28.73685","translations":[{"name":"Vatra","locale":"en"},{"name":"Гидигич","locale":"ru"},{"locale":"ro","name":"Vatra"}]},{"lat":"47.0706","lng":"29.0782","translations":[{"name":"Văduleni","locale":"en"},{"name":"Вэдулень","locale":"ru"},{"locale":"ro","name":"Văduleni"}]}],"translations":[{"name":"Chișinău Municipality","locale":"en"},{"name":"Municipiul Chişinău","locale":"ru"},{"locale":"ro","name":"Municipiul Chișinău"}]},{"lat":"45.83333","lng":"28.33333","localities":[{"lat":"45.90425","lng":"28.19929","translations":[{"name":"Cahul","locale":"en"},{"name":"Кагул","locale":"ru"},{"locale":"ro","name":"Кахул"}]},{"lat":"45.80855","lng":"28.42812","translations":[{"name":"Alexanderfeld","locale":"en"},{"name":"Кымпень","locale":"ru"},{"locale":"ro","name":"Alexanderfeld"}]},{"lat":"46.05028","lng":"28.4125","translations":[{"name":"Alexandreşti","locale":"en"},{"name":"Alexandreşti","locale":"ru"},{"locale":"ro","name":"Alexandreşti"}]},{"lat":"46.00879","lng":"28.24611","translations":[{"name":"Andruşul de Sus","locale":"en"},{"name":"Верхний Андруш","locale":"ru"},{"locale":"ro","name":"Andruşu de Sus"}]},{"lat":"45.98491","lng":"28.22042","translations":[{"name":"Andruşul de Jos","locale":"en"},{"name":"Нижний Андруш","locale":"ru"},{"locale":"ro","name":"Andruşul de Jos"}]},{"lat":"46.09472","lng":"28.24472","translations":[{"name":"Badicu-Nou","locale":"en"},{"name":"Badicu-Nou","locale":"ru"},{"locale":"ro","name":"Badicu-Nou"}]},{"lat":"46.09513","lng":"28.26486","translations":[{"name":"Badicul Moldovenesc","locale":"en"},{"name":"Бадику-Молдавское","locale":"ru"},{"locale":"ro","name":"Badicul Moldovenesc"}]},{"lat":"45.9275","lng":"28.35861","translations":[{"name":"Bairamcea","locale":"en"},{"name":"Bairamcea","locale":"ru"},{"locale":"ro","name":"Bairamcea"}]},{"lat":"46.03054","lng":"28.22834","translations":[{"name":"Baurci-Moldoveni","locale":"en"},{"name":"Баурчи-Молдовень","locale":"ru"},{"locale":"ro","name":"Baurci-Moldoveni"}]},{"lat":"45.67541","lng":"28.17378","translations":[{"name":"Brînza","locale":"en"},{"name":"Брынза","locale":"ru"},{"locale":"ro","name":"Brînza"}]},{"lat":"45.96577","lng":"28.35005","translations":[{"name":"Bucuria","locale":"en"},{"name":"Букурия","locale":"ru"},{"locale":"ro","name":"Bucuria"}]},{"lat":"46.04729","lng":"28.41474","translations":[{"name":"Burlacu","locale":"en"},{"name":"Бурлаки","locale":"ru"},{"locale":"ro","name":"Burlacu"}]},{"lat":"45.75958","lng":"28.50566","translations":[{"name":"Burlăceni","locale":"en"},{"name":"Бурлачены","locale":"ru"},{"locale":"ro","name":"Burlăceni"}]},{"lat":"45.85","lng":"28.23333","translations":[{"name":"Burtovka","locale":"en"},{"name":"Burtovka","locale":"ru"},{"locale":"ro","name":"Burtovka"}]},{"lat":"45.97139","lng":"28.33917","translations":[{"name":"Cazaclia","locale":"en"},{"name":"Cazaclia","locale":"ru"},{"locale":"ro","name":"Cazaclia"}]},{"lat":"46.08805","lng":"28.17388","translations":[{"name":"Chircani","locale":"en"},{"name":"Кирканы","locale":"ru"},{"locale":"ro","name":"Chircani"}]},{"lat":"45.96639","lng":"28.30306","translations":[{"name":"Ciorâta","locale":"en"},{"name":"Ciorâta","locale":"ru"},{"locale":"ro","name":"Ciorâta"}]},{"lat":"45.71783","lng":"28.18148","translations":[{"name":"Colibaşi","locale":"en"},{"name":"Колибаш","locale":"ru"},{"locale":"ro","name":"Colibaşi"}]},{"lat":"45.93833","lng":"28.24344","translations":[{"name":"Cotihana","locale":"en"},{"name":"Котиганы","locale":"ru"},{"locale":"ro","name":"Cotihana"}]},{"lat":"45.84664","lng":"28.19464","translations":[{"name":"Crihana Veche","locale":"en"},{"name":"Старые Криганы","locale":"ru"},{"locale":"ro","name":"Crihana Veche"}]},{"lat":"46.05333","lng":"28.17178","translations":[{"name":"Cucoara","locale":"en"},{"name":"Кукоара","locale":"ru"},{"locale":"ro","name":"Cucoara"}]},{"lat":"45.53914","lng":"28.1709","translations":[{"name":"Cîşliţa-Prut","locale":"en"},{"name":"Кышлица-Прут","locale":"ru"},{"locale":"ro","name":"Cîşliţa-Prut"}]},{"lat":"45.93111","lng":"28.20056","translations":[{"name":"Focşani","locale":"en"},{"name":"Focşani","locale":"ru"},{"locale":"ro","name":"Focşani"}]},{"lat":"45.85361","lng":"28.29528","translations":[{"name":"Făgădău","locale":"en"},{"name":"Făgădău","locale":"ru"},{"locale":"ro","name":"Făgădău"}]},{"lat":"46.02139","lng":"28.20833","translations":[{"name":"Ghibanu","locale":"en"},{"name":"Ghibanu","locale":"ru"},{"locale":"ro","name":"Ghibanu"}]},{"lat":"45.93694","lng":"28.41194","translations":[{"name":"Gigălboaia","locale":"en"},{"name":"Gigălboaia","locale":"ru"},{"locale":"ro","name":"Gigălboaia"}]},{"lat":"45.48167","lng":"28.19722","translations":[{"name":"Giurgiulesti","locale":"en"},{"name":"Джурджулешты","locale":"ru"},{"locale":"ro","name":"Giurgiuleşti"}]},{"lat":"45.72167","lng":"28.39167","translations":[{"name":"Greceni","locale":"en"},{"name":"Greceni","locale":"ru"},{"locale":"ro","name":"Greceni"}]},{"lat":"45.76168","lng":"28.53182","translations":[{"name":"Greceni","locale":"en"},{"name":"Гречены","locale":"ru"},{"locale":"ro","name":"Greceni"}]},{"lat":"46.07556","lng":"28.22528","translations":[{"name":"Gura-Larga","locale":"en"},{"name":"Gura-Larga","locale":"ru"},{"locale":"ro","name":"Gura-Larga"}]},{"lat":"45.75659","lng":"28.38456","translations":[{"name":"Găvănoasa","locale":"en"},{"name":"Гаваноаса","locale":"ru"},{"locale":"ro","name":"Găvănoasa"}]},{"lat":"46.06583","lng":"28.33333","translations":[{"name":"Huluboaia","locale":"en"},{"name":"Huluboaia","locale":"ru"},{"locale":"ro","name":"Huluboaia"}]},{"lat":"45.86246","lng":"28.29923","translations":[{"name":"Hutulu","locale":"en"},{"name":"Гутул","locale":"ru"},{"locale":"ro","name":"Hutulu"}]},{"lat":"45.74905","lng":"28.47793","translations":[{"name":"Iujnoe","locale":"en"},{"name":"Южное","locale":"ru"},{"locale":"ro","name":"Iujnoe"}]},{"lat":"46.07153","lng":"28.22358","translations":[{"name":"Larga Nouă","locale":"en"},{"name":"Новая Ларга","locale":"ru"},{"locale":"ro","name":"Larga Nouă"}]},{"lat":"46.06867","lng":"28.24302","translations":[{"name":"Larga Veche","locale":"en"},{"name":"Старая Ларга","locale":"ru"},{"locale":"ro","name":"Larga Veche"}]},{"lat":"45.86259","lng":"28.28892","translations":[{"name":"Lebedenco","locale":"en"},{"name":"Лебеденко","locale":"ru"},{"locale":"ro","name":"Lebedenco"}]},{"lat":"45.93059","lng":"28.41201","translations":[{"name":"Lopăţica","locale":"en"},{"name":"Лопацика","locale":"ru"},{"locale":"ro","name":"Lopăţica"}]},{"lat":"45.98945","lng":"28.33","translations":[{"name":"Luceşti","locale":"en"},{"name":"Лучешты","locale":"ru"},{"locale":"ro","name":"Luceşti"}]},{"lat":"45.8071","lng":"28.18089","translations":[{"name":"Manta","locale":"en"},{"name":"Manta","locale":"ru"},{"locale":"ro","name":"Manta"}]},{"lat":"45.93417","lng":"28.35556","translations":[{"name":"Moscovei","locale":"en"},{"name":"Moscovei","locale":"ru"},{"locale":"ro","name":"Moscovei"}]},{"lat":"45.91167","lng":"28.37639","translations":[{"name":"Moscovei Vechi","locale":"en"},{"name":"Moscovei Vechi","locale":"ru"},{"locale":"ro","name":"Moscovei Vechi"}]},{"lat":"45.91667","lng":"28.36667","translations":[{"name":"Moscovei-Constantinescu","locale":"en"},{"name":"Moscovei-Constantinescu","locale":"ru"},{"locale":"ro","name":"Moscovei-Constantinescu"}]},{"lat":"45.89917","lng":"28.38917","translations":[{"name":"Moscovei-Răzeşi","locale":"en"},{"name":"Moscovei-Răzeşi","locale":"ru"},{"locale":"ro","name":"Moscovei-Răzeşi"}]},{"lat":"45.76917","lng":"28.47333","translations":[{"name":"Netush","locale":"en"},{"name":"Netush","locale":"ru"},{"locale":"ro","name":"Netush"}]},{"lat":"45.75665","lng":"28.37619","translations":[{"name":"Nicolaevca","locale":"en"},{"name":"Николаевка","locale":"ru"},{"locale":"ro","name":"Nicolaevca"}]},{"lat":"45.81444","lng":"28.43333","translations":[{"name":"Novoye Aleksandrovo","locale":"en"},{"name":"Novoye Aleksandrovo","locale":"ru"},{"locale":"ro","name":"Novoye Aleksandrovo"}]},{"lat":"46.03769","lng":"28.15547","translations":[{"name":"Paicu","locale":"en"},{"name":"Паик","locale":"ru"},{"locale":"ro","name":"Paicu"}]},{"lat":"45.82083","lng":"28.43639","translations":[{"name":"Parushovka","locale":"en"},{"name":"Parushovka","locale":"ru"},{"locale":"ro","name":"Parushovka"}]},{"lat":"45.82497","lng":"28.18276","translations":[{"name":"Paşcani","locale":"en"},{"name":"Пашканы","locale":"ru"},{"locale":"ro","name":"Paşcani"}]},{"lat":"45.82776","lng":"28.32083","translations":[{"name":"Pelinei","locale":"en"},{"name":"Пелиней","locale":"ru"},{"locale":"ro","name":"Pelinei"}]},{"lat":"45.84528","lng":"28.31583","translations":[{"name":"Pelinei Noui","locale":"en"},{"name":"Pelinei Noui","locale":"ru"},{"locale":"ro","name":"Pelinei Noui"}]},{"lat":"45.95773","lng":"28.19642","translations":[{"name":"Roşu","locale":"en"},{"name":"Рошу","locale":"ru"},{"locale":"ro","name":"Roşu"}]},{"lat":"46.11248","lng":"28.28363","translations":[{"name":"Rumeanţev","locale":"en"},{"name":"Румянцево","locale":"ru"},{"locale":"ro","name":"Rumeanţev"}]},{"lat":"45.5787","lng":"28.17397","translations":[{"name":"Slobozia Mare","locale":"en"},{"name":"Слободзея-Маре","locale":"ru"},{"locale":"ro","name":"Slobozia Mare"}]},{"lat":"46.03415","lng":"28.37612","translations":[{"name":"Spicoasa","locale":"en"},{"name":"Спикоаса","locale":"ru"},{"locale":"ro","name":"Spicoasa"}]},{"lat":"46.0275","lng":"28.20444","translations":[{"name":"Stoianovca","locale":"en"},{"name":"Stoianovca","locale":"ru"},{"locale":"ro","name":"Stoianovca"}]},{"lat":"45.80241","lng":"28.35361","translations":[{"name":"Sătuc","locale":"en"},{"name":"Сатук","locale":"ru"},{"locale":"ro","name":"Sătuc"}]},{"lat":"46.01281","lng":"28.41955","translations":[{"name":"Taraclia de Salcie","locale":"en"},{"name":"Тараклия-де-Салчие","locale":"ru"},{"locale":"ro","name":"Taraclia de Salcie"}]},{"lat":"45.96977","lng":"28.41057","translations":[{"name":"Tartaul de Salcie","locale":"en"},{"name":"Тартаул-де-Салчие","locale":"ru"},{"locale":"ro","name":"Tartaul de Salcie"}]},{"lat":"46","lng":"28.16667","translations":[{"name":"Treteşti","locale":"en"},{"name":"Treteşti","locale":"ru"},{"locale":"ro","name":"Treteşti"}]},{"lat":"45.94819","lng":"28.35478","translations":[{"name":"Trifeştii Noi","locale":"en"},{"name":"Новые Трифешты","locale":"ru"},{"locale":"ro","name":"Trifeştii Noi"}]},{"lat":"45.96471","lng":"28.40177","translations":[{"name":"Tudoreşti","locale":"en"},{"name":"Тудорешты","locale":"ru"},{"locale":"ro","name":"Tudoreşti"}]},{"lat":"46.02497","lng":"28.34692","translations":[{"name":"Tătăreşti","locale":"en"},{"name":"Татарешты","locale":"ru"},{"locale":"ro","name":"Tătăreşti"}]},{"lat":"45.85159","lng":"28.31496","translations":[{"name":"Ursoaia","locale":"en"},{"name":"Урсоая","locale":"ru"},{"locale":"ro","name":"Ursoaia"}]},{"lat":"45.76318","lng":"28.17122","translations":[{"name":"Vadul lui Isac","locale":"en"},{"name":"Вадул-луй-Исак","locale":"ru"},{"locale":"ro","name":"Vadul lui Isac"}]},{"lat":"45.82861","lng":"28.38556","translations":[{"name":"Valya Gavanosa","locale":"en"},{"name":"Valya Gavanosa","locale":"ru"},{"locale":"ro","name":"Valya Gavanosa"}]},{"lat":"45.78472","lng":"28.17333","translations":[{"name":"Viduca","locale":"en"},{"name":"Viduca","locale":"ru"},{"locale":"ro","name":"Viduca"}]},{"lat":"45.78764","lng":"28.36476","translations":[{"name":"Vladimirovca","locale":"en"},{"name":"Владимировка","locale":"ru"},{"locale":"ro","name":"Vladimirovca"}]},{"lat":"45.632","lng":"28.17605","translations":[{"name":"Văleni","locale":"en"},{"name":"Валены","locale":"ru"},{"locale":"ro","name":"Văleni"}]},{"lat":"46.01207","lng":"28.16294","translations":[{"name":"Zîrneşti","locale":"en"},{"name":"Зырнешты","locale":"ru"},{"locale":"ro","name":"Zîrneşti"}]}],"translations":[{"name":"Cahul","locale":"en"},{"name":"Кагульский район","locale":"ru"},{"locale":"ro","name":"Raionul Cahul"}]},{"lat":"46.25","lng":"28.33333","localities":[{"lat":"46.27743","lng":"28.2027","translations":[{"name":"Cantemir","locale":"en"},{"name":"Кантемир","locale":"ru"},{"locale":"ro","name":"Cantemir"}]},{"lat":"46.1872","lng":"28.42544","translations":[{"name":"Acui","locale":"en"},{"name":"Акуй","locale":"ru"},{"locale":"ro","name":"Acui"}]},{"lat":"46.17806","lng":"28.43361","translations":[{"name":"Acui de Jos","locale":"en"},{"name":"Acui de Jos","locale":"ru"},{"locale":"ro","name":"Acui de Jos"}]},{"lat":"46.19639","lng":"28.4175","translations":[{"name":"Acui de Sus","locale":"en"},{"name":"Acui de Sus","locale":"ru"},{"locale":"ro","name":"Acui de Sus"}]},{"lat":"46.22926","lng":"28.2679","translations":[{"name":"Alexandrovca","locale":"en"},{"name":"Александровка","locale":"ru"},{"locale":"ro","name":"Alexandrovca"}]},{"lat":"46.33273","lng":"28.21605","translations":[{"name":"Antoneşti","locale":"en"},{"name":"Антоновка","locale":"ru"},{"locale":"ro","name":"Antoneşti"}]},{"lat":"46.18749","lng":"28.38888","translations":[{"name":"Baimaclia","locale":"en"},{"name":"Баймаклия","locale":"ru"},{"locale":"ro","name":"Baimaclia"}]},{"lat":"46.22468","lng":"28.45987","translations":[{"name":"Bobocica","locale":"en"},{"name":"Bobocica","locale":"ru"},{"locale":"ro","name":"Bobocica"}]},{"lat":"46.37074","lng":"28.52127","translations":[{"name":"Borogani","locale":"en"},{"name":"Бороганы","locale":"ru"},{"locale":"ro","name":"Borogani"}]},{"lat":"46.2525","lng":"28.33889","translations":[{"name":"Butuceni","locale":"en"},{"name":"Butuceni","locale":"ru"},{"locale":"ro","name":"Butuceni"}]},{"lat":"46.2763","lng":"28.23051","translations":[{"name":"Cania","locale":"en"},{"name":"Кания","locale":"ru"},{"locale":"ro","name":"Cania"}]},{"lat":"46.32949","lng":"28.40106","translations":[{"name":"Capaclia","locale":"en"},{"name":"Капаклия","locale":"ru"},{"locale":"ro","name":"Capaclia"}]},{"lat":"46.14099","lng":"28.40564","translations":[{"name":"Chioselia","locale":"en"},{"name":"Киселия","locale":"ru"},{"locale":"ro","name":"Chioselia"}]},{"lat":"46.09982","lng":"28.48992","translations":[{"name":"Chioselia Mare","locale":"en"},{"name":"Большая Киселия","locale":"ru"},{"locale":"ro","name":"Chioselia Mare"}]},{"lat":"46.17243","lng":"28.28305","translations":[{"name":"Ciobalaccia","locale":"en"},{"name":"Чебалакчия","locale":"ru"},{"locale":"ro","name":"Ciobalaccia"}]},{"lat":"46.35681","lng":"28.41505","translations":[{"name":"Cociulia","locale":"en"},{"name":"Кочулия","locale":"ru"},{"locale":"ro","name":"Cociulia"}]},{"lat":"46.11055","lng":"28.21307","translations":[{"name":"Constantineşti","locale":"en"},{"name":"Константиновка","locale":"ru"},{"locale":"ro","name":"Constantineşti"}]},{"lat":"46.10983","lng":"28.38663","translations":[{"name":"Coştangalia","locale":"en"},{"name":"Коштангалия","locale":"ru"},{"locale":"ro","name":"Coştangalia"}]},{"lat":"46.23308","lng":"28.35099","translations":[{"name":"Crăciun","locale":"en"},{"name":"Крачун","locale":"ru"},{"locale":"ro","name":"Crăciun"}]},{"lat":"46.37431","lng":"28.3578","translations":[{"name":"Cuporani","locale":"en"},{"name":"Купораны","locale":"ru"},{"locale":"ro","name":"Cuporani"}]},{"lat":"46.13721","lng":"28.48126","translations":[{"name":"Cîietu","locale":"en"},{"name":"Кыет","locale":"ru"},{"locale":"ro","name":"Cîietu"}]},{"lat":"46.25937","lng":"28.33929","translations":[{"name":"Cîrpeşti","locale":"en"},{"name":"Кырпешты","locale":"ru"},{"locale":"ro","name":"Cîrpeşti"}]},{"lat":"46.141","lng":"28.33489","translations":[{"name":"Cîşla","locale":"en"},{"name":"Кышла","locale":"ru"},{"locale":"ro","name":"Cîşla"}]},{"lat":"46.15933","lng":"28.46808","translations":[{"name":"Dimitrova","locale":"en"},{"name":"Димитрово","locale":"ru"},{"locale":"ro","name":"Dimitrova"}]},{"lat":"46.11194","lng":"28.32886","translations":[{"name":"Doina","locale":"en"},{"name":"Дойна","locale":"ru"},{"locale":"ro","name":"Doina"}]},{"lat":"46.219","lng":"28.41562","translations":[{"name":"Enichioi","locale":"en"},{"name":"Еникиой","locale":"ru"},{"locale":"ro","name":"Enichioi"}]},{"lat":"46.1526","lng":"28.2496","translations":[{"name":"Flocoasa","locale":"en"},{"name":"Флокоаса","locale":"ru"},{"locale":"ro","name":"Flocoasa"}]},{"lat":"46.23504","lng":"28.41102","translations":[{"name":"Floricica","locale":"en"},{"name":"Флоричика","locale":"ru"},{"locale":"ro","name":"Floricica"}]},{"lat":"46.16528","lng":"28.15806","translations":[{"name":"Flămânda","locale":"en"},{"name":"Flămânda","locale":"ru"},{"locale":"ro","name":"Flămânda"}]},{"lat":"46.19333","lng":"28.16096","translations":[{"name":"Ghioltosu","locale":"en"},{"name":"Гелтос","locale":"ru"},{"locale":"ro","name":"Ghioltosu"}]},{"lat":"46.13592","lng":"28.17625","translations":[{"name":"Goteşti","locale":"en"},{"name":"Готешты","locale":"ru"},{"locale":"ro","name":"Goteşti"}]},{"lat":"46.13139","lng":"28.17806","translations":[{"name":"Goteştii Noi","locale":"en"},{"name":"Goteştii Noi","locale":"ru"},{"locale":"ro","name":"Goteştii Noi"}]},{"lat":"46.28942","lng":"28.378","translations":[{"name":"Haragîş","locale":"en"},{"name":"Гарагыш","locale":"ru"},{"locale":"ro","name":"Haragîş"}]},{"lat":"46.23457","lng":"28.25052","translations":[{"name":"Hîrtop","locale":"en"},{"name":"Гыртоп","locale":"ru"},{"locale":"ro","name":"Hîrtop"}]},{"lat":"46.34614","lng":"28.3316","translations":[{"name":"Hănăseni","locale":"en"},{"name":"Ганасены-де-Падуре","locale":"ru"},{"locale":"ro","name":"Hănăseni"}]},{"lat":"46.4252","lng":"28.42676","translations":[{"name":"Iargara","locale":"en"},{"name":"Яргара","locale":"ru"},{"locale":"ro","name":"Iargara"}]},{"lat":"46.14117","lng":"28.30498","translations":[{"name":"Iasnaia Poleana","locale":"en"},{"name":"Ясная Поляна","locale":"ru"},{"locale":"ro","name":"Iasnaia Poleana"}]},{"lat":"46.26241","lng":"28.21945","translations":[{"name":"Iepureni","locale":"en"},{"name":"Епурены","locale":"ru"},{"locale":"ro","name":"Iepureni"}]},{"lat":"46.21778","lng":"28.30333","translations":[{"name":"Ilashkova","locale":"en"},{"name":"Ilashkova","locale":"ru"},{"locale":"ro","name":"Ilashkova"}]},{"lat":"46.30824","lng":"28.20406","translations":[{"name":"Leca","locale":"en"},{"name":"Лека","locale":"ru"},{"locale":"ro","name":"Leca"}]},{"lat":"46.23139","lng":"28.32283","translations":[{"name":"Lingura","locale":"en"},{"name":"Lingura","locale":"ru"},{"locale":"ro","name":"Lingura"}]},{"lat":"46.30255","lng":"28.31978","translations":[{"name":"Lărguţa","locale":"en"},{"name":"Ларгуца","locale":"ru"},{"locale":"ro","name":"Lărguţa"}]},{"lat":"46.13139","lng":"28.34611","translations":[{"name":"Malaya Kozhdangliya","locale":"en"},{"name":"Malaya Kozhdangliya","locale":"ru"},{"locale":"ro","name":"Malaya Kozhdangliya"}]},{"lat":"46.41897","lng":"28.46556","translations":[{"name":"Meşeni","locale":"en"},{"name":"Мешены","locale":"ru"},{"locale":"ro","name":"Meşeni"}]},{"lat":"46.24389","lng":"28.34444","translations":[{"name":"Măcreşti","locale":"en"},{"name":"Măcreşti","locale":"ru"},{"locale":"ro","name":"Măcreşti"}]},{"lat":"46.11694","lng":"28.18333","translations":[{"name":"Novo-Konstantinovka","locale":"en"},{"name":"Novo-Konstantinovka","locale":"ru"},{"locale":"ro","name":"Novo-Konstantinovka"}]},{"lat":"46.35637","lng":"28.34252","translations":[{"name":"Pleşeni","locale":"en"},{"name":"Плешены","locale":"ru"},{"locale":"ro","name":"Pleşeni"}]},{"lat":"46.20831","lng":"28.21327","translations":[{"name":"Plopi","locale":"en"},{"name":"Плопь","locale":"ru"},{"locale":"ro","name":"Plopi"}]},{"lat":"46.24846","lng":"28.3097","translations":[{"name":"Popovca","locale":"en"},{"name":"Поповка","locale":"ru"},{"locale":"ro","name":"Popovca"}]},{"lat":"46.31123","lng":"28.27767","translations":[{"name":"Porumbeşti","locale":"en"},{"name":"Порумбешты","locale":"ru"},{"locale":"ro","name":"Porumbeşti"}]},{"lat":"46.26988","lng":"28.51857","translations":[{"name":"Sadîc","locale":"en"},{"name":"Садык","locale":"ru"},{"locale":"ro","name":"Sadîc"}]},{"lat":"46.25917","lng":"28.16444","translations":[{"name":"Stoianovca","locale":"en"},{"name":"Stoianovca","locale":"ru"},{"locale":"ro","name":"Stoianovca"}]},{"lat":"46.16211","lng":"28.34448","translations":[{"name":"Suhat","locale":"en"},{"name":"Сухат","locale":"ru"},{"locale":"ro","name":"Suhat"}]},{"lat":"46.21537","lng":"28.51825","translations":[{"name":"Taraclia","locale":"en"},{"name":"Тараклия","locale":"ru"},{"locale":"ro","name":"Taraclia"}]},{"lat":"46.21954","lng":"28.2261","translations":[{"name":"Taraclia","locale":"en"},{"name":"Тараклия","locale":"ru"},{"locale":"ro","name":"Taraclia"}]},{"lat":"46.20671","lng":"28.32039","translations":[{"name":"Tartaul","locale":"en"},{"name":"Tartaul","locale":"ru"},{"locale":"ro","name":"Tartaul"}]},{"lat":"46.3877","lng":"28.37726","translations":[{"name":"Tigheci","locale":"en"},{"name":"Тигеч","locale":"ru"},{"locale":"ro","name":"Tigheci"}]},{"lat":"46.36679","lng":"28.21792","translations":[{"name":"Toceni","locale":"en"},{"name":"Точены","locale":"ru"},{"locale":"ro","name":"Toceni"}]},{"lat":"46.19415","lng":"28.4787","translations":[{"name":"Tsolika","locale":"en"},{"name":"Цолика","locale":"ru"},{"locale":"ro","name":"Tsolika"}]},{"lat":"46.18306","lng":"28.29444","translations":[{"name":"Tutovanu","locale":"en"},{"name":"Tutovanu","locale":"ru"},{"locale":"ro","name":"Tutovanu"}]},{"lat":"46.34222","lng":"28.30253","translations":[{"name":"Tătărăşeni","locale":"en"},{"name":"Татарашены","locale":"ru"},{"locale":"ro","name":"Tătărăşeni"}]},{"lat":"46.17833","lng":"28.29167","translations":[{"name":"Victoria","locale":"en"},{"name":"Victoria","locale":"ru"},{"locale":"ro","name":"Victoria"}]},{"lat":"46.3326","lng":"28.44797","translations":[{"name":"Vişniovca","locale":"en"},{"name":"Вишневка","locale":"ru"},{"locale":"ro","name":"Vişniovca"}]},{"lat":"46.38155","lng":"28.25249","translations":[{"name":"Vîlcele","locale":"en"},{"name":"Вылчеле","locale":"ru"},{"locale":"ro","name":"Vîlcele"}]},{"lat":"46.18333","lng":"28.16667","translations":[{"name":"Zereshty","locale":"en"},{"name":"Zereshty","locale":"ru"},{"locale":"ro","name":"Zereshty"}]},{"lat":"46.2715","lng":"28.43671","translations":[{"name":"Şamalia","locale":"en"},{"name":"Шамалия","locale":"ru"},{"locale":"ro","name":"Şamalia"}]},{"lat":"46.1242","lng":"28.36028","translations":[{"name":"Şofranovca","locale":"en"},{"name":"Шафрановка","locale":"ru"},{"locale":"ro","name":"Şofranovca"}]},{"lat":"46.23036","lng":"28.15546","translations":[{"name":"Ţiganca","locale":"en"},{"name":"Стояновка","locale":"ru"},{"locale":"ro","name":"Ţiganca"}]},{"lat":"46.20464","lng":"28.17589","translations":[{"name":"Ţiganca Nouă","locale":"en"},{"name":"Новая Стояновка","locale":"ru"},{"locale":"ro","name":"Ţiganca Nouă"}]},{"lat":"46.10758","lng":"28.41019","translations":[{"name":"Ţărăncuţa","locale":"en"},{"name":"Царанкуца","locale":"ru"},{"locale":"ro","name":"Ţărăncuţa"}]},{"lat":"46.19504","lng":"28.48111","translations":[{"name":"Țolica","locale":"en"},{"name":"Țolica","locale":"ru"},{"locale":"ro","name":"Țolica"}]}],"translations":[{"name":"Cantemir","locale":"en"},{"name":"Кантемирский район","locale":"ru"},{"locale":"ro","name":"Raionul Cantemir"}]},{"lat":"47.15861","lng":"29.03065","localities":[{"lat":"47.21307","lng":"29.15926","translations":[{"name":"Criuleni","locale":"en"},{"name":"Криуляны","locale":"ru"},{"locale":"ro","name":"Criuleni"}]},{"lat":"47.12802","lng":"29.00103","translations":[{"name":"Boşcana","locale":"en"},{"name":"Бошкана","locale":"ru"},{"locale":"ro","name":"Boşcana"}]},{"lat":"47.30161","lng":"28.96727","translations":[{"name":"Butuceni","locale":"en"},{"name":"Бутучены","locale":"ru"},{"locale":"ro","name":"Butuceni"}]},{"lat":"47.06843","lng":"29.13584","translations":[{"name":"Bâlăbăneşti","locale":"en"},{"name":"Балабанешты","locale":"ru"},{"locale":"ro","name":"Bâlăbăneşti"}]},{"lat":"47.26588","lng":"29.04463","translations":[{"name":"Bălăşecţi","locale":"en"},{"name":"Балашешты","locale":"ru"},{"locale":"ro","name":"Bălăşecţi"}]},{"lat":"47.05255","lng":"29.04835","translations":[{"name":"Bălţata","locale":"en"},{"name":"Балцата","locale":"ru"},{"locale":"ro","name":"Bălţata"}]},{"lat":"47.12206","lng":"28.97958","translations":[{"name":"Chetroasa","locale":"en"},{"name":"Кетросы","locale":"ru"},{"locale":"ro","name":"Chetroasa"}]},{"lat":"47.01201","lng":"29.12923","translations":[{"name":"Cimişeni","locale":"en"},{"name":"Чимишены","locale":"ru"},{"locale":"ro","name":"Cimişeni"}]},{"lat":"47.13053","lng":"28.95091","translations":[{"name":"Ciopleni","locale":"en"},{"name":"Чоплены","locale":"ru"},{"locale":"ro","name":"Ciopleni"}]},{"lat":"47.09724","lng":"29.17356","translations":[{"name":"Corjova","locale":"en"},{"name":"Коржово","locale":"ru"},{"locale":"ro","name":"Corjova"}]},{"lat":"47.11903","lng":"29.04666","translations":[{"name":"Coşerniţa","locale":"en"},{"name":"Кошерница","locale":"ru"},{"locale":"ro","name":"Coşerniţa"}]},{"lat":"47.21793","lng":"29.02615","translations":[{"name":"Cruglic","locale":"en"},{"name":"Круглик","locale":"ru"},{"locale":"ro","name":"Cruglic"}]},{"lat":"47.02412","lng":"28.9967","translations":[{"name":"Dolinnoe","locale":"en"},{"name":"Буга","locale":"ru"},{"locale":"ro","name":"Dolinnoe"}]},{"lat":"47.15698","lng":"28.78154","translations":[{"name":"Drăsliceni","locale":"en"},{"name":"Драсличены","locale":"ru"},{"locale":"ro","name":"Drăsliceni"}]},{"lat":"47.13486","lng":"29.19941","translations":[{"name":"Dubăsarii Vechi","locale":"en"},{"name":"Старые Дубоссары","locale":"ru"},{"locale":"ro","name":"Dubăsarii Vechi"}]},{"lat":"47.13637","lng":"28.95168","translations":[{"name":"Hruşova","locale":"en"},{"name":"Грушево","locale":"ru"},{"locale":"ro","name":"Hruşova"}]},{"lat":"47.22715","lng":"28.94143","translations":[{"name":"Hîrtopul Mare","locale":"en"},{"name":"Гыртопул-Маре","locale":"ru"},{"locale":"ro","name":"Hîrtopul Mare"}]},{"lat":"47.24852","lng":"28.93048","translations":[{"name":"Hîrtopul Mic","locale":"en"},{"name":"Гыртоул-Мик","locale":"ru"},{"locale":"ro","name":"Hîrtopul Mic"}]},{"lat":"47.22139","lng":"29.00194","translations":[{"name":"Izbişte","locale":"en"},{"name":"Избище","locale":"ru"},{"locale":"ro","name":"Izbişte"}]},{"lat":"47.23329","lng":"28.86442","translations":[{"name":"Işnovăţ","locale":"en"},{"name":"Ишновец","locale":"ru"},{"locale":"ro","name":"Işnovăţ"}]},{"lat":"47.17355","lng":"28.7873","translations":[{"name":"Logăneşti","locale":"en"},{"name":"Логанешты","locale":"ru"},{"locale":"ro","name":"Logăneşti"}]},{"lat":"47.29068","lng":"29.00118","translations":[{"name":"Maşcăuţi","locale":"en"},{"name":"Машкауцы","locale":"ru"},{"locale":"ro","name":"Maşcăuţi"}]},{"lat":"47.23985","lng":"28.80516","translations":[{"name":"Micleşti","locale":"en"},{"name":"Миклешты","locale":"ru"},{"locale":"ro","name":"Micleşti"}]},{"lat":"47.29841","lng":"28.99701","translations":[{"name":"Morovaia","locale":"en"},{"name":"Моровая","locale":"ru"},{"locale":"ro","name":"Morovaia"}]},{"lat":"47.14164","lng":"28.82426","translations":[{"name":"Măgdăceşti","locale":"en"},{"name":"Магдачешты","locale":"ru"},{"locale":"ro","name":"Măgdăceşti"}]},{"lat":"47.0834","lng":"29.13294","translations":[{"name":"Mălăleşti","locale":"en"},{"name":"Малаешты","locale":"ru"},{"locale":"ro","name":"Mălăleşti"}]},{"lat":"47.07886","lng":"29.14261","translations":[{"name":"Mălăleştii Noi","locale":"en"},{"name":"Mălăleştii Noi","locale":"ru"},{"locale":"ro","name":"Mălăleştii Noi"}]},{"lat":"47.11765","lng":"29.00325","translations":[{"name":"Mărdăreuca","locale":"en"},{"name":"Мардарьевка","locale":"ru"},{"locale":"ro","name":"Mărdăreuca"}]},{"lat":"47.22084","lng":"29.06045","translations":[{"name":"Ohrincea","locale":"en"},{"name":"Охринча","locale":"ru"},{"locale":"ro","name":"Ohrincea"}]},{"lat":"47.14648","lng":"29.07045","translations":[{"name":"Oniţcani","locale":"en"},{"name":"Оницканы","locale":"ru"},{"locale":"ro","name":"Oniţcani"}]},{"lat":"47.16967","lng":"28.8325","translations":[{"name":"Paşcani","locale":"en"},{"name":"Пашканы","locale":"ru"},{"locale":"ro","name":"Paşcani"}]},{"lat":"47.1667","lng":"28.80748","translations":[{"name":"Ratuş","locale":"en"},{"name":"Ратуш","locale":"ru"},{"locale":"ro","name":"Ratuş"}]},{"lat":"47.25233","lng":"28.84659","translations":[{"name":"Rîşcova","locale":"en"},{"name":"Рышково","locale":"ru"},{"locale":"ro","name":"Rîşcova"}]},{"lat":"47.04803","lng":"29.02473","translations":[{"name":"Sagaidacul de Sus","locale":"en"},{"name":"Верхний Сагайдак","locale":"ru"},{"locale":"ro","name":"Sagaidacul de Sus"}]},{"lat":"47.16654","lng":"29.12052","translations":[{"name":"Slobozia-Duşca","locale":"en"},{"name":"Слободзея-Душка","locale":"ru"},{"locale":"ro","name":"Slobozia-Duşca"}]},{"lat":"47.23586","lng":"28.82095","translations":[{"name":"Steţcani","locale":"en"},{"name":"Стецканы","locale":"ru"},{"locale":"ro","name":"Steţcani"}]},{"lat":"47.02338","lng":"28.97812","translations":[{"name":"Valea Coloniţei","locale":"en"},{"name":"Валя-Колоницей","locale":"ru"},{"locale":"ro","name":"Valea Coloniţei"}]},{"lat":"47.03657","lng":"29.00223","translations":[{"name":"Valea Satului","locale":"en"},{"name":"Валя-Сутулуй","locale":"ru"},{"locale":"ro","name":"Valea Satului"}]},{"lat":"47.16799","lng":"28.95278","translations":[{"name":"Zăicana","locale":"en"},{"name":"Загайканы","locale":"ru"},{"locale":"ro","name":"Zăicana"}]}],"translations":[{"name":"Criuleni","locale":"en"},{"name":"Криулянский район","locale":"ru"},{"locale":"ro","name":"Raionul Criuleni"}]},{"lat":"47.29365","lng":"28.30836","localities":[{"lat":"47.2556","lng":"28.30987","translations":[{"name":"Călăraşi","locale":"en"},{"name":"Калараш","locale":"ru"},{"locale":"ro","name":"Călăraşi"}]},{"lat":"47.32347","lng":"28.11454","translations":[{"name":"Bahmut","locale":"en"},{"name":"Бахмут","locale":"ru"},{"locale":"ro","name":"Bahmut"}]},{"lat":"47.42209","lng":"28.46632","translations":[{"name":"Bahu","locale":"en"},{"name":"Баху","locale":"ru"},{"locale":"ro","name":"Bahu"}]},{"lat":"47.42176","lng":"28.42713","translations":[{"name":"Bogzeşti","locale":"en"},{"name":"Богзешты","locale":"ru"},{"locale":"ro","name":"Bogzeşti"}]},{"lat":"47.36082","lng":"28.43645","translations":[{"name":"Bravicea","locale":"en"},{"name":"Бравича","locale":"ru"},{"locale":"ro","name":"Bravicea"}]},{"lat":"47.21128","lng":"28.21692","translations":[{"name":"Buda","locale":"en"},{"name":"Buda","locale":"ru"},{"locale":"ro","name":"Buda"}]},{"lat":"47.35611","lng":"28.22222","translations":[{"name":"Bularda","locale":"en"},{"name":"Bularda","locale":"ru"},{"locale":"ro","name":"Bularda"}]},{"lat":"47.21693","lng":"28.14558","translations":[{"name":"Căbăieşti","locale":"en"},{"name":"Кабаешты","locale":"ru"},{"locale":"ro","name":"Căbăieşti"}]},{"lat":"47.38158","lng":"28.24521","translations":[{"name":"Dereneu","locale":"en"},{"name":"Деренев","locale":"ru"},{"locale":"ro","name":"Dereneu"}]},{"lat":"47.37473","lng":"28.26383","translations":[{"name":"Duma","locale":"en"},{"name":"Дума","locale":"ru"},{"locale":"ro","name":"Duma"}]},{"lat":"47.33088","lng":"28.39962","translations":[{"name":"Frumoasa","locale":"en"},{"name":"Фрумоаса","locale":"ru"},{"locale":"ro","name":"Frumoasa"}]},{"lat":"47.41121","lng":"28.28203","translations":[{"name":"Hirova","locale":"en"},{"name":"Гирово","locale":"ru"},{"locale":"ro","name":"Hirova"}]},{"lat":"47.37025","lng":"28.31912","translations":[{"name":"Hogineşti","locale":"en"},{"name":"Оджинешты","locale":"ru"},{"locale":"ro","name":"Hogineşti"}]},{"lat":"47.20958","lng":"28.2527","translations":[{"name":"Horodişte","locale":"en"},{"name":"Городище","locale":"ru"},{"locale":"ro","name":"Horodişte"}]},{"lat":"47.34015","lng":"28.31177","translations":[{"name":"Hîrboveţ","locale":"en"},{"name":"Гырбовец","locale":"ru"},{"locale":"ro","name":"Hîrboveţ"}]},{"lat":"47.32439","lng":"28.22134","translations":[{"name":"Hîrjauca","locale":"en"},{"name":"Гыржавка","locale":"ru"},{"locale":"ro","name":"Hîrjauca"}]},{"lat":"47.33772","lng":"28.13766","translations":[{"name":"Leordoaia","locale":"en"},{"name":"Леордая","locale":"ru"},{"locale":"ro","name":"Leordoaia"}]},{"lat":"47.37474","lng":"28.38655","translations":[{"name":"Meleşeni","locale":"en"},{"name":"Мелешены","locale":"ru"},{"locale":"ro","name":"Meleşeni"}]},{"lat":"47.3013","lng":"28.20762","translations":[{"name":"Muzhik","locale":"en"},{"name":"Muzhik","locale":"ru"},{"locale":"ro","name":"Muzhik"}]},{"lat":"47.31877","lng":"28.26354","translations":[{"name":"Mîndra","locale":"en"},{"name":"Мындра","locale":"ru"},{"locale":"ro","name":"Mîndra"}]},{"lat":"47.26902","lng":"28.34507","translations":[{"name":"Nişcani","locale":"en"},{"name":"Нишканы","locale":"ru"},{"locale":"ro","name":"Nişcani"}]},{"lat":"47.37793","lng":"28.51705","translations":[{"name":"Noroceni","locale":"en"},{"name":"Норочены","locale":"ru"},{"locale":"ro","name":"Noroceni"}]},{"lat":"47.23631","lng":"28.26291","translations":[{"name":"Novaci","locale":"en"},{"name":"Новачь","locale":"ru"},{"locale":"ro","name":"Novaci"}]},{"lat":"47.36686","lng":"28.28327","translations":[{"name":"Onişcani","locale":"en"},{"name":"Онишканы","locale":"ru"},{"locale":"ro","name":"Onişcani"}]},{"lat":"47.29945","lng":"28.23606","translations":[{"name":"Oricova","locale":"en"},{"name":"Ориково","locale":"ru"},{"locale":"ro","name":"Oricova"}]},{"lat":"47.33474","lng":"28.20367","translations":[{"name":"Palanca","locale":"en"},{"name":"Паланка","locale":"ru"},{"locale":"ro","name":"Palanca"}]},{"lat":"47.29639","lng":"28.37376","translations":[{"name":"Parcani","locale":"en"},{"name":"Парканы","locale":"ru"},{"locale":"ro","name":"Parcani"}]},{"lat":"47.23695","lng":"28.20583","translations":[{"name":"Peticeni","locale":"en"},{"name":"Петичены","locale":"ru"},{"locale":"ro","name":"Peticeni"}]},{"lat":"47.23602","lng":"28.42247","translations":[{"name":"Pituşca","locale":"en"},{"name":"Питушка","locale":"ru"},{"locale":"ro","name":"Pituşca"}]},{"lat":"47.26051","lng":"28.23882","translations":[{"name":"Podul Lung","locale":"en"},{"name":"Поду-Лунг","locale":"ru"},{"locale":"ro","name":"Podul Lung"}]},{"lat":"47.3324","lng":"28.09111","translations":[{"name":"Pojarna","locale":"en"},{"name":"Пожарна","locale":"ru"},{"locale":"ro","name":"Pojarna"}]},{"lat":"47.1976","lng":"28.24017","translations":[{"name":"Pîrjolteni","locale":"en"},{"name":"Пыржолтены","locale":"ru"},{"locale":"ro","name":"Pîrjolteni"}]},{"lat":"47.26886","lng":"28.37194","translations":[{"name":"Păuleşti","locale":"en"},{"name":"Паулешты","locale":"ru"},{"locale":"ro","name":"Păuleşti"}]},{"lat":"47.20565","lng":"28.4277","translations":[{"name":"Rassvet","locale":"en"},{"name":"Rassvet","locale":"ru"},{"locale":"ro","name":"Rassvet"}]},{"lat":"47.3058","lng":"28.34709","translations":[{"name":"Răciula","locale":"en"},{"name":"Речула","locale":"ru"},{"locale":"ro","name":"Răciula"}]},{"lat":"47.3958","lng":"28.21306","translations":[{"name":"Rădeni","locale":"en"},{"name":"Редены","locale":"ru"},{"locale":"ro","name":"Rădeni"}]},{"lat":"47.19235","lng":"28.34436","translations":[{"name":"Sadova","locale":"en"},{"name":"Sadova","locale":"ru"},{"locale":"ro","name":"Sadova"}]},{"lat":"47.23357","lng":"28.31351","translations":[{"name":"Seliştea Nouă","locale":"en"},{"name":"Новые Селишты","locale":"ru"},{"locale":"ro","name":"Seliştea Nouă"}]},{"lat":"47.27988","lng":"28.19655","translations":[{"name":"Sipoteni","locale":"en"},{"name":"Сипотены","locale":"ru"},{"locale":"ro","name":"Sipoteni"}]},{"lat":"47.35305","lng":"28.29456","translations":[{"name":"Sverida","locale":"en"},{"name":"Сверидо","locale":"ru"},{"locale":"ro","name":"Sverida"}]},{"lat":"47.36813","lng":"28.50019","translations":[{"name":"Săseni","locale":"en"},{"name":"Сесены","locale":"ru"},{"locale":"ro","name":"Săseni"}]},{"lat":"47.33141","lng":"28.56458","translations":[{"name":"Tabăra","locale":"en"},{"name":"Табора","locale":"ru"},{"locale":"ro","name":"Tabăra"}]},{"lat":"47.30737","lng":"28.17209","translations":[{"name":"Tochile","locale":"en"},{"name":"Токила","locale":"ru"},{"locale":"ro","name":"Tochile"}]},{"lat":"47.24243","lng":"28.304","translations":[{"name":"Tuzara","locale":"en"},{"name":"Tuzara","locale":"ru"},{"locale":"ro","name":"Tuzara"}]},{"lat":"47.22139","lng":"28.18781","translations":[{"name":"Ursari","locale":"en"},{"name":"Урсары","locale":"ru"},{"locale":"ro","name":"Ursari"}]},{"lat":"47.26808","lng":"28.12694","translations":[{"name":"Vălcineţ","locale":"en"},{"name":"Волчинец","locale":"ru"},{"locale":"ro","name":"Vălcineţ"}]},{"lat":"47.23351","lng":"28.44431","translations":[{"name":"Vărzăreştii Noi","locale":"en"},{"name":"Новые Варзарешты","locale":"ru"},{"locale":"ro","name":"Vărzăreştii Noi"}]},{"lat":"47.37148","lng":"28.36685","translations":[{"name":"Ţibirica","locale":"en"},{"name":"Цибирика","locale":"ru"},{"locale":"ro","name":"Ţibirica"}]}],"translations":[{"name":"Raionul Călăraşi","locale":"en"},{"name":"Raionul Călăraşi","locale":"ru"},{"locale":"ro","name":"Raionul Călăraşi"}]},{"lat":"46.61884","lng":"29.3135","localities":[{"lat":"46.63674","lng":"29.41114","translations":[{"name":"Căușeni","locale":"en"},{"name":"Каушаны","locale":"ru"},{"locale":"ro","name":"Căușeni"}]},{"lat":"46.69306","lng":"29.28289","translations":[{"name":"Baccealia","locale":"en"},{"name":"Бачкалия","locale":"ru"},{"locale":"ro","name":"Baccealia"}]},{"lat":"46.58945","lng":"29.09652","translations":[{"name":"Baimaclia","locale":"en"},{"name":"Баймаклия","locale":"ru"},{"locale":"ro","name":"Baimaclia"}]},{"lat":"46.57579","lng":"29.00263","translations":[{"name":"Batîr","locale":"en"},{"name":"Батыр","locale":"ru"},{"locale":"ro","name":"Batîr"}]},{"lat":"46.65769","lng":"28.95022","translations":[{"name":"Baurci","locale":"en"},{"name":"Баурчи","locale":"ru"},{"locale":"ro","name":"Baurci"}]},{"lat":"46.71913","lng":"29.52592","translations":[{"name":"Chircăieşti","locale":"en"},{"name":"Киркаешты","locale":"ru"},{"locale":"ro","name":"Chircăieşti"}]},{"lat":"46.66667","lng":"29.03333","translations":[{"name":"Chircăieşti","locale":"en"},{"name":"Chircăieşti","locale":"ru"},{"locale":"ro","name":"Chircăieşti"}]},{"lat":"46.66395","lng":"28.97197","translations":[{"name":"Chircăieştii Noi","locale":"en"},{"name":"Новые Киркаешты","locale":"ru"},{"locale":"ro","name":"Chircăieştii Noi"}]},{"lat":"46.78296","lng":"29.61682","translations":[{"name":"Chiţcani","locale":"en"},{"name":"Кицканы","locale":"ru"},{"locale":"ro","name":"Chiţcani"}]},{"lat":"46.65446","lng":"29.49314","translations":[{"name":"Cirnăţeni","locale":"en"},{"name":"Кырнацены","locale":"ru"},{"locale":"ro","name":"Cirnăţeni"}]},{"lat":"46.62284","lng":"29.00075","translations":[{"name":"Ciufleşti","locale":"en"},{"name":"Чуфлешты","locale":"ru"},{"locale":"ro","name":"Ciufleşti"}]},{"lat":"46.72246","lng":"29.11305","translations":[{"name":"Constantinovca","locale":"en"},{"name":"Константиновка","locale":"ru"},{"locale":"ro","name":"Constantinovca"}]},{"lat":"46.68546","lng":"29.15698","translations":[{"name":"Coşcalia","locale":"en"},{"name":"Кошкалия","locale":"ru"},{"locale":"ro","name":"Coşcalia"}]},{"lat":"46.7175","lng":"29.10778","translations":[{"name":"Cureni","locale":"en"},{"name":"Cureni","locale":"ru"},{"locale":"ro","name":"Cureni"}]},{"lat":"46.64918","lng":"29.13898","translations":[{"name":"Cîrnăţenii Noi","locale":"en"},{"name":"Новые Кырнацены","locale":"ru"},{"locale":"ro","name":"Cîrnăţenii Noi"}]},{"lat":"46.68196","lng":"29.04833","translations":[{"name":"Căinari","locale":"en"},{"name":"Думбравены","locale":"ru"},{"locale":"ro","name":"Căinari"}]},{"lat":"46.64722","lng":"29.44028","translations":[{"name":"Căuşanii-Vechi","locale":"en"},{"name":"Căuşanii-Vechi","locale":"ru"},{"locale":"ro","name":"Căuşanii-Vechi"}]},{"lat":"46.68944","lng":"29.2224","translations":[{"name":"Florica","locale":"en"},{"name":"Флорика","locale":"ru"},{"locale":"ro","name":"Florica"}]},{"lat":"46.75131","lng":"29.30261","translations":[{"name":"Fîrladenii Noi","locale":"en"},{"name":"Новые Фырладяны","locale":"ru"},{"locale":"ro","name":"Fîrladenii Noi"}]},{"lat":"46.78888","lng":"29.36521","translations":[{"name":"Fîrlădeni","locale":"en"},{"name":"Fîrlădeni","locale":"ru"},{"locale":"ro","name":"Fîrlădeni"}]},{"lat":"46.69173","lng":"29.33011","translations":[{"name":"Grigorievca","locale":"en"},{"name":"Григорьевка","locale":"ru"},{"locale":"ro","name":"Grigorievca"}]},{"lat":"46.75519","lng":"29.48502","translations":[{"name":"Hagimus","locale":"en"},{"name":"Хаджимус","locale":"ru"},{"locale":"ro","name":"Hagimus"}]},{"lat":"46.72501","lng":"29.05709","translations":[{"name":"Homuteanovca","locale":"en"},{"name":"Хомутяновка","locale":"ru"},{"locale":"ro","name":"Homuteanovca"}]},{"lat":"46.48278","lng":"29.26972","translations":[{"name":"Il'yanka","locale":"en"},{"name":"Il'yanka","locale":"ru"},{"locale":"ro","name":"Il'yanka"}]},{"lat":"46.64361","lng":"29.25222","translations":[{"name":"Marianca Nouă","locale":"en"},{"name":"Marianca Nouă","locale":"ru"},{"locale":"ro","name":"Marianca Nouă"}]},{"lat":"46.64668","lng":"29.31348","translations":[{"name":"Marianca de Sus","locale":"en"},{"name":"Верхняя Марьяновка","locale":"ru"},{"locale":"ro","name":"Marianca de Sus"}]},{"lat":"46.77551","lng":"29.53378","translations":[{"name":"Mereneşti","locale":"en"},{"name":"Меренешты","locale":"ru"},{"locale":"ro","name":"Mereneşti"}]},{"lat":"46.58088","lng":"29.34827","translations":[{"name":"Opaci","locale":"en"},{"name":"Опач","locale":"ru"},{"locale":"ro","name":"Opaci"}]},{"lat":"46.69857","lng":"29.09089","translations":[{"name":"Pervomaisc","locale":"en"},{"name":"Первомайск","locale":"ru"},{"locale":"ro","name":"Pervomaisc"}]},{"lat":"46.75086","lng":"29.09467","translations":[{"name":"Picus","locale":"en"},{"name":"Пикус","locale":"ru"},{"locale":"ro","name":"Picus"}]},{"lat":"46.71043","lng":"29.21977","translations":[{"name":"Plop","locale":"en"},{"name":"Plop","locale":"ru"},{"locale":"ro","name":"Plop"}]},{"lat":"46.67256","lng":"29.52294","translations":[{"name":"Plop-Ştiubei","locale":"en"},{"name":"Плоп-Штюбей","locale":"ru"},{"locale":"ro","name":"Plop-Ştiubei"}]},{"lat":"46.47886","lng":"29.32428","translations":[{"name":"Zviozdocica","locale":"en"},{"name":"Звездочка","locale":"ru"},{"locale":"ro","name":"Steluţa"}]},{"lat":"46.6215","lng":"29.05497","translations":[{"name":"Surchiceni","locale":"en"},{"name":"Суркичены","locale":"ru"},{"locale":"ro","name":"Surchiceni"}]},{"lat":"46.49754","lng":"29.40303","translations":[{"name":"Săiţi","locale":"en"},{"name":"Саицы","locale":"ru"},{"locale":"ro","name":"Săiţi"}]},{"lat":"46.59544","lng":"29.24882","translations":[{"name":"Sălcuţa","locale":"en"},{"name":"Салкуца","locale":"ru"},{"locale":"ro","name":"Sălcuţa"}]},{"lat":"46.63237","lng":"29.19088","translations":[{"name":"Sălcuţa Nouă","locale":"en"},{"name":"Новая Салкуца","locale":"ru"},{"locale":"ro","name":"Sălcuţa Nouă"}]},{"lat":"46.5678","lng":"29.11796","translations":[{"name":"Taraclia","locale":"en"},{"name":"Тараклия","locale":"ru"},{"locale":"ro","name":"Taraclia"}]},{"lat":"46.52631","lng":"29.29943","translations":[{"name":"Tocuz","locale":"en"},{"name":"Токуз","locale":"ru"},{"locale":"ro","name":"Tocuz"}]},{"lat":"46.73812","lng":"29.23968","translations":[{"name":"Tricolici","locale":"en"},{"name":"Триколич","locale":"ru"},{"locale":"ro","name":"Tricolici"}]},{"lat":"46.72566","lng":"29.41519","translations":[{"name":"Tănătari","locale":"en"},{"name":"Танатары","locale":"ru"},{"locale":"ro","name":"Tănătari"}]},{"lat":"46.73989","lng":"29.32116","translations":[{"name":"Tănătarti Noi","locale":"en"},{"name":"Новые Танатары","locale":"ru"},{"locale":"ro","name":"Tănătarti Noi"}]},{"lat":"46.43229","lng":"29.27548","translations":[{"name":"Ucrainca","locale":"en"},{"name":"Украинка","locale":"ru"},{"locale":"ro","name":"Ucrainca"}]},{"lat":"46.70507","lng":"29.44623","translations":[{"name":"Ursoaia","locale":"en"},{"name":"Урсоая","locale":"ru"},{"locale":"ro","name":"Ursoaia"}]},{"lat":"46.72954","lng":"29.33317","translations":[{"name":"Ursoaia Nouă","locale":"en"},{"name":"Новая Урсоая","locale":"ru"},{"locale":"ro","name":"Ursoaia Nouă"}]},{"lat":"46.61939","lng":"29.34825","translations":[{"name":"Zaim","locale":"en"},{"name":"Заим","locale":"ru"},{"locale":"ro","name":"Zaim"}]},{"lat":"46.70466","lng":"29.37444","translations":[{"name":"Ştefăneşti","locale":"en"},{"name":"Степановка","locale":"ru"},{"locale":"ro","name":"Ştefăneşti"}]}],"translations":[{"name":"Raionul Căuşeni","locale":"en"},{"name":"Raionul Căuşeni","locale":"ru"},{"locale":"ro","name":"Raionul Căuşeni"}]},{"lat":"48.2677","lng":"27.68616","localities":[{"lat":"48.24268","lng":"27.6101","translations":[{"name":"Donduşeni","locale":"en"},{"name":"Donduşeni","locale":"ru"},{"locale":"ro","name":"Donduşeni"}]},{"lat":"48.0759","lng":"27.69469","translations":[{"name":"Antoneuca","locale":"en"},{"name":"Антоновка","locale":"ru"},{"locale":"ro","name":"Antoneuca"}]},{"lat":"48.08454","lng":"27.62007","translations":[{"name":"Baraboi","locale":"en"},{"name":"Барабой","locale":"ru"},{"locale":"ro","name":"Baraboi"}]},{"lat":"48.28437","lng":"27.73564","translations":[{"name":"Borosyany","locale":"en"},{"name":"Боросяны","locale":"ru"},{"locale":"ro","name":"Borosyany"}]},{"lat":"48.30335","lng":"27.73381","translations":[{"name":"Braicău","locale":"en"},{"name":"Брайково","locale":"ru"},{"locale":"ro","name":"Braicău"}]},{"lat":"48.35628","lng":"27.70293","translations":[{"name":"Briceni","locale":"en"},{"name":"Бричаны","locale":"ru"},{"locale":"ro","name":"Briceni"}]},{"lat":"48.11418","lng":"27.64938","translations":[{"name":"Briceva","locale":"en"},{"name":"Бричева","locale":"ru"},{"locale":"ro","name":"Briceva"}]},{"lat":"48.31216","lng":"27.56388","translations":[{"name":"Cernoleuca","locale":"en"},{"name":"Чернолевка","locale":"ru"},{"locale":"ro","name":"Cernoleuca"}]},{"lat":"48.31263","lng":"27.61565","translations":[{"name":"Climăuţi","locale":"en"},{"name":"Климауцы","locale":"ru"},{"locale":"ro","name":"Climăuţi"}]},{"lat":"48.14384","lng":"27.57664","translations":[{"name":"Codrenii Noi","locale":"en"},{"name":"Новые Кодряны","locale":"ru"},{"locale":"ro","name":"Codrenii Noi"}]},{"lat":"48.26539","lng":"27.57748","translations":[{"name":"Corbu","locale":"en"},{"name":"Корбу","locale":"ru"},{"locale":"ro","name":"Corbu"}]},{"lat":"48.26636","lng":"27.85554","translations":[{"name":"Crişcăuţi","locale":"en"},{"name":"Кришкауцы","locale":"ru"},{"locale":"ro","name":"Crişcăuţi"}]},{"lat":"48.12524","lng":"27.62733","translations":[{"name":"Elenovca","locale":"en"},{"name":"Еленовка","locale":"ru"},{"locale":"ro","name":"Elenovca"}]},{"lat":"48.27815","lng":"27.71659","translations":[{"name":"Elizavetovca","locale":"en"},{"name":"Елизаветовка","locale":"ru"},{"locale":"ro","name":"Elizavetovca"}]},{"lat":"48.13733","lng":"27.55174","translations":[{"name":"Frasin","locale":"en"},{"name":"Frasin","locale":"ru"},{"locale":"ro","name":"Frasin"}]},{"lat":"48.11005","lng":"27.69343","translations":[{"name":"Fîntîniţa","locale":"en"},{"name":"Фынтыница","locale":"ru"},{"locale":"ro","name":"Fîntîniţa"}]},{"lat":"48.10381","lng":"27.73221","translations":[{"name":"Ghizdita","locale":"en"},{"name":"Гиздита","locale":"ru"},{"locale":"ro","name":"Ghizdita"}]},{"lat":"48.26526","lng":"27.79174","translations":[{"name":"Horodişte","locale":"en"},{"name":"Городище","locale":"ru"},{"locale":"ro","name":"Horodişte"}]},{"lat":"48.28153","lng":"27.99385","translations":[{"name":"Malaya Tatarovka","locale":"en"},{"name":"Malaya Tatarovka","locale":"ru"},{"locale":"ro","name":"Malaya Tatarovka"}]},{"lat":"48.20236","lng":"27.79789","translations":[{"name":"Maramonovca","locale":"en"},{"name":"Марамоновка","locale":"ru"},{"locale":"ro","name":"Maramonovca"}]},{"lat":"48.32194","lng":"27.68998","translations":[{"name":"Moşana","locale":"en"},{"name":"Мошана","locale":"ru"},{"locale":"ro","name":"Moşana"}]},{"lat":"48.21472","lng":"27.94341","translations":[{"name":"Mălcăuţi","locale":"en"},{"name":"Малкауцы","locale":"ru"},{"locale":"ro","name":"Mălcăuţi"}]},{"lat":"48.33889","lng":"27.66971","translations":[{"name":"Octeabrscoe","locale":"en"},{"name":"Октябрьское","locale":"ru"},{"locale":"ro","name":"Octeabrscoe"}]},{"lat":"48.08736","lng":"27.72325","translations":[{"name":"Pervomaiscoe","locale":"en"},{"name":"Первомайское","locale":"ru"},{"locale":"ro","name":"Pervomaiscoe"}]},{"lat":"48.25422","lng":"27.70448","translations":[{"name":"Plop","locale":"en"},{"name":"Plop","locale":"ru"},{"locale":"ro","name":"Plop"}]},{"lat":"48.32885","lng":"27.86115","translations":[{"name":"Pocrovca","locale":"en"},{"name":"Покровка","locale":"ru"},{"locale":"ro","name":"Pocrovca"}]},{"lat":"48.29891","lng":"27.93948","translations":[{"name":"Poieniţa","locale":"en"},{"name":"Поеница","locale":"ru"},{"locale":"ro","name":"Poieniţa"}]},{"lat":"48.23206","lng":"27.52086","translations":[{"name":"Rediul Mare","locale":"en"},{"name":"Редю-Маре","locale":"ru"},{"locale":"ro","name":"Rediul Mare"}]},{"lat":"48.17793","lng":"27.58697","translations":[{"name":"Scăieni","locale":"en"},{"name":"Скаяны","locale":"ru"},{"locale":"ro","name":"Scăieni"}]},{"lat":"48.2602","lng":"27.98438","translations":[{"name":"Slobozia Nouă","locale":"en"},{"name":"Новая Слободзея","locale":"ru"},{"locale":"ro","name":"Slobozia Nouă"}]},{"lat":"48.30536","lng":"27.78488","translations":[{"name":"Sudarca","locale":"en"},{"name":"Сударка","locale":"ru"},{"locale":"ro","name":"Sudarca"}]},{"lat":"48.28206","lng":"27.90208","translations":[{"name":"Teleşeuca","locale":"en"},{"name":"Телешовка","locale":"ru"},{"locale":"ro","name":"Teleşeuca"}]},{"lat":"48.28139","lng":"27.88861","translations":[{"name":"Teleşeuca Nouă","locale":"en"},{"name":"Teleşeuca Nouă","locale":"ru"},{"locale":"ro","name":"Teleşeuca Nouă"}]},{"lat":"48.30665","lng":"27.91056","translations":[{"name":"Tolocăneşti","locale":"en"},{"name":"Толоканешты","locale":"ru"},{"locale":"ro","name":"Tolocăneşti"}]},{"lat":"48.16598","lng":"27.66148","translations":[{"name":"Tîrnova","locale":"en"},{"name":"Тырново","locale":"ru"},{"locale":"ro","name":"Tîrnova"}]},{"lat":"48.31681","lng":"27.97303","translations":[{"name":"Tătărăuca Nouă","locale":"en"},{"name":"Новая Татаровка","locale":"ru"},{"locale":"ro","name":"Tătărăuca Nouă"}]},{"lat":"48.29843","lng":"27.98229","translations":[{"name":"Tătărăuca Veche","locale":"en"},{"name":"Старая Татаровка","locale":"ru"},{"locale":"ro","name":"Tătărăuca Veche"}]},{"lat":"48.24549","lng":"27.9225","translations":[{"name":"Visoca","locale":"en"},{"name":"Висока","locale":"ru"},{"locale":"ro","name":"Visoca"}]},{"lat":"48.2126","lng":"27.68145","translations":[{"name":"Ţaul","locale":"en"},{"name":"Цауль","locale":"ru"},{"locale":"ro","name":"Ţaul"}]}],"translations":[{"name":"Donduşeni","locale":"en"},{"name":"Дондюшанский район","locale":"ru"},{"locale":"ro","name":"Raionul Dondușeni"}]},{"lat":"47.25","lng":"29.11667","localities":[{"lat":"47.3017","lng":"29.11755","translations":[{"name":"Cocieri","locale":"en"},{"name":"Кочиеры","locale":"ru"},{"locale":"ro","name":"Cocieri"}]},{"lat":"47.14635","lng":"29.13449","translations":[{"name":"Coşniţa","locale":"en"},{"name":"Кошница","locale":"ru"},{"locale":"ro","name":"Coşniţa"}]},{"lat":"47.17229","lng":"29.20356","translations":[{"name":"Doroţcaia","locale":"en"},{"name":"Дороцкое","locale":"ru"},{"locale":"ro","name":"Doroţcaia"}]},{"lat":"47.31235","lng":"29.06958","translations":[{"name":"Holercani","locale":"en"},{"name":"Голерканы","locale":"ru"},{"locale":"ro","name":"Holercani"}]},{"lat":"47.25838","lng":"29.06303","translations":[{"name":"Jevreni","locale":"en"},{"name":"Жеврены","locale":"ru"},{"locale":"ro","name":"Jevreni"}]},{"lat":"47.46641","lng":"29.10704","translations":[{"name":"Jora de Jos","locale":"en"},{"name":"Нижняя Жора","locale":"ru"},{"locale":"ro","name":"Jora de Jos"}]},{"lat":"47.35424","lng":"29.05915","translations":[{"name":"Marcăuţi","locale":"en"},{"name":"Маркауцы","locale":"ru"},{"locale":"ro","name":"Marcăuţi"}]},{"lat":"47.34974","lng":"29.11447","translations":[{"name":"Molovata","locale":"en"},{"name":"Моловата","locale":"ru"},{"locale":"ro","name":"Molovata"}]},{"lat":"47.34546","lng":"29.09271","translations":[{"name":"Molovata Nouă","locale":"en"},{"name":"Новая Моловата","locale":"ru"},{"locale":"ro","name":"Molovata Nouă"}]},{"lat":"47.38261","lng":"29.1197","translations":[{"name":"Oxentea","locale":"en"},{"name":"Оксентия","locale":"ru"},{"locale":"ro","name":"Oxentea"}]},{"lat":"47.18133","lng":"29.16706","translations":[{"name":"Pohrebea","locale":"en"},{"name":"Погребя","locale":"ru"},{"locale":"ro","name":"Pohrebea"}]},{"lat":"47.10092","lng":"29.12112","translations":[{"name":"Pîrîta","locale":"en"},{"name":"Пырыта","locale":"ru"},{"locale":"ro","name":"Pîrîta"}]},{"lat":"47.32206","lng":"29.13986","translations":[{"name":"Roghi","locale":"en"},{"name":"Роги","locale":"ru"},{"locale":"ro","name":"Roghi"}]},{"lat":"47.27067","lng":"29.068","translations":[{"name":"Răculeşti","locale":"en"},{"name":"Ракулешты","locale":"ru"},{"locale":"ro","name":"Răculeşti"}]},{"lat":"47.25524","lng":"29.12406","translations":[{"name":"Ustia","locale":"en"},{"name":"Устье","locale":"ru"},{"locale":"ro","name":"Ustia"}]},{"lat":"47.36899","lng":"29.30519","translations":[{"name":"Vasilievca","locale":"en"},{"name":"Васильевка","locale":"ru"},{"locale":"ro","name":"Vasilievca"}]},{"lat":"47.43129","lng":"29.07554","translations":[{"name":"Vîşcăuţi","locale":"en"},{"name":"Вышкауцы","locale":"ru"},{"locale":"ro","name":"Vîşcăuţi"}]},{"lat":"47.24624","lng":"29.13856","translations":[{"name":"Zoloceni","locale":"en"},{"name":"Золончены","locale":"ru"},{"locale":"ro","name":"Zoloceni"}]}],"translations":[{"name":"Raionul Dubăsari","locale":"en"},{"name":"Raionul Dubăsari","locale":"ru"},{"locale":"ro","name":"Raionul Dubăsari"}]},{"lat":"48.16667","lng":"27.25","localities":[{"lat":"48.17215","lng":"27.30337","translations":[{"name":"Edineţ","locale":"en"},{"name":"Единцы","locale":"ru"},{"locale":"ro","name":"Edineț"}]},{"lat":"48.09378","lng":"27.26191","translations":[{"name":"Alexeevca","locale":"en"},{"name":"Алексеевка","locale":"ru"},{"locale":"ro","name":"Alexeevca"}]},{"lat":"48.14845","lng":"27.26159","translations":[{"name":"Alexăndreni","locale":"en"},{"name":"Александрены","locale":"ru"},{"locale":"ro","name":"Alexăndreni"}]},{"lat":"48.12035","lng":"27.21962","translations":[{"name":"Bleşteni","locale":"en"},{"name":"Блештены","locale":"ru"},{"locale":"ro","name":"Bleşteni"}]},{"lat":"48.08362","lng":"27.17513","translations":[{"name":"Brînzeni","locale":"en"},{"name":"Брынзены","locale":"ru"},{"locale":"ro","name":"Brînzeni"}]},{"lat":"48.07129","lng":"27.40124","translations":[{"name":"Brătuşeni","locale":"en"},{"name":"Братушаны","locale":"ru"},{"locale":"ro","name":"Brătuşeni"}]},{"lat":"48.06167","lng":"27.4831","translations":[{"name":"Brătuşenii Noi","locale":"en"},{"name":"Новые Братушаны","locale":"ru"},{"locale":"ro","name":"Brătuşenii Noi"}]},{"lat":"48.12671","lng":"27.12993","translations":[{"name":"Burlăneşti","locale":"en"},{"name":"Бурланешты","locale":"ru"},{"locale":"ro","name":"Burlăneşti"}]},{"lat":"48.1072","lng":"27.15699","translations":[{"name":"Buzdugeni","locale":"en"},{"name":"Буздужаны","locale":"ru"},{"locale":"ro","name":"Buzdugeni"}]},{"lat":"48.06204","lng":"27.07601","translations":[{"name":"Bădragii Noi","locale":"en"},{"name":"Новые Бадражи","locale":"ru"},{"locale":"ro","name":"Bădragii Noi"}]},{"lat":"48.03712","lng":"27.10896","translations":[{"name":"Bădragii Vechi","locale":"en"},{"name":"Старые Бадражи","locale":"ru"},{"locale":"ro","name":"Bădragii Vechi"}]},{"lat":"48.17639","lng":"27.52472","translations":[{"name":"Carul Frumos","locale":"en"},{"name":"Carul Frumos","locale":"ru"},{"locale":"ro","name":"Carul Frumos"}]},{"lat":"48.11725","lng":"27.4769","translations":[{"name":"Chetroşica Nouă","locale":"en"},{"name":"Новая Кетрошика","locale":"ru"},{"locale":"ro","name":"Chetroşica Nouă"}]},{"lat":"48.11939","lng":"27.40417","translations":[{"name":"Chetroşica Veche","locale":"en"},{"name":"Старая Кетрошика","locale":"ru"},{"locale":"ro","name":"Chetroşica Veche"}]},{"lat":"48.06131","lng":"27.34291","translations":[{"name":"Chiurt","locale":"en"},{"name":"Кюрт","locale":"ru"},{"locale":"ro","name":"Chiurt"}]},{"lat":"48.07637","lng":"27.53921","translations":[{"name":"Ciubara","locale":"en"},{"name":"Чубара","locale":"ru"},{"locale":"ro","name":"Ciubara"}]},{"lat":"48.28312","lng":"27.32076","translations":[{"name":"Clişcăuţi","locale":"en"},{"name":"Калишкауцы","locale":"ru"},{"locale":"ro","name":"Clişcăuţi"}]},{"lat":"48.00819","lng":"27.13941","translations":[{"name":"Corpaci","locale":"en"},{"name":"Корпач","locale":"ru"},{"locale":"ro","name":"Corpaci"}]},{"lat":"47.98718","lng":"27.20613","translations":[{"name":"Cuconeştii Noi","locale":"en"},{"name":"Новые Куконешты","locale":"ru"},{"locale":"ro","name":"Cuconeştii Noi"}]},{"lat":"47.96683","lng":"27.14845","translations":[{"name":"Cuconeştii Vechi","locale":"en"},{"name":"Старые Куконешты","locale":"ru"},{"locale":"ro","name":"Cuconeştii Vechi"}]},{"lat":"48.11023","lng":"27.3839","translations":[{"name":"Cupcini","locale":"en"},{"name":"Калининск","locale":"ru"},{"locale":"ro","name":"Cupcini"}]},{"lat":"48.16372","lng":"27.09898","translations":[{"name":"Feteşti","locale":"en"},{"name":"Фетешты","locale":"ru"},{"locale":"ro","name":"Feteşti"}]},{"lat":"48.16028","lng":"27.43245","translations":[{"name":"Fîntîna Albă","locale":"en"},{"name":"Фынтына-Албэ","locale":"ru"},{"locale":"ro","name":"Fîntîna Albă"}]},{"lat":"48.15678","lng":"27.49836","translations":[{"name":"Gaşpar","locale":"en"},{"name":"Гашпар","locale":"ru"},{"locale":"ro","name":"Gaşpar"}]},{"lat":"48.2095","lng":"27.43286","translations":[{"name":"Goleni","locale":"en"},{"name":"Голяны","locale":"ru"},{"locale":"ro","name":"Goleni"}]},{"lat":"48.15926","lng":"27.16981","translations":[{"name":"Gordineşti","locale":"en"},{"name":"Гординешты","locale":"ru"},{"locale":"ro","name":"Gordineşti"}]},{"lat":"48.16961","lng":"27.22522","translations":[{"name":"Gordineştii Noi","locale":"en"},{"name":"Новые Гординешты","locale":"ru"},{"locale":"ro","name":"Gordineştii Noi"}]},{"lat":"48.04864","lng":"27.19039","translations":[{"name":"Hancăuţi","locale":"en"},{"name":"Хэнкауцы","locale":"ru"},{"locale":"ro","name":"Hancăuţi"}]},{"lat":"48.04567","lng":"27.13595","translations":[{"name":"Heredeuca","locale":"en"},{"name":"Гередеевка","locale":"ru"},{"locale":"ro","name":"Heredeuca"}]},{"lat":"48.22193","lng":"27.25333","translations":[{"name":"Hlinaia","locale":"en"},{"name":"Глиное","locale":"ru"},{"locale":"ro","name":"Hlinaia"}]},{"lat":"48.25335","lng":"27.26936","translations":[{"name":"Hlinaia Mică","locale":"en"},{"name":"Малое Глиное","locale":"ru"},{"locale":"ro","name":"Hlinaia Mică"}]},{"lat":"48.27463","lng":"27.30845","translations":[{"name":"Hîncăuţi","locale":"en"},{"name":"Гинкауцы","locale":"ru"},{"locale":"ro","name":"Hîncăuţi"}]},{"lat":"48.06678","lng":"27.276","translations":[{"name":"Oneşti","locale":"en"},{"name":"Онешть","locale":"ru"},{"locale":"ro","name":"Oneşti"}]},{"lat":"48.15228","lng":"27.405","translations":[{"name":"Parcova","locale":"en"},{"name":"Парково","locale":"ru"},{"locale":"ro","name":"Parcova"}]},{"lat":"48.24981","lng":"27.35435","translations":[{"name":"Poiana","locale":"en"},{"name":"Пояна","locale":"ru"},{"locale":"ro","name":"Poiana"}]},{"lat":"48.24202","lng":"27.30733","translations":[{"name":"Rotunda","locale":"en"},{"name":"Rotunda","locale":"ru"},{"locale":"ro","name":"Rotunda"}]},{"lat":"48.20181","lng":"27.41583","translations":[{"name":"Ruseni","locale":"en"},{"name":"Русяны","locale":"ru"},{"locale":"ro","name":"Ruseni"}]},{"lat":"48.20724","lng":"27.3705","translations":[{"name":"Slobodca","locale":"en"},{"name":"Слободка","locale":"ru"},{"locale":"ro","name":"Slobodca"}]},{"lat":"48.04004","lng":"27.34668","translations":[{"name":"Stolniceni","locale":"en"},{"name":"Стольничены","locale":"ru"},{"locale":"ro","name":"Stolniceni"}]},{"lat":"48.04968","lng":"27.25019","translations":[{"name":"Terebna","locale":"en"},{"name":"Теребно","locale":"ru"},{"locale":"ro","name":"Terebna"}]},{"lat":"48.20424","lng":"27.1762","translations":[{"name":"Tîrnova","locale":"en"},{"name":"Тырново","locale":"ru"},{"locale":"ro","name":"Tîrnova"}]},{"lat":"48.09527","lng":"27.04498","translations":[{"name":"Viişoara","locale":"en"},{"name":"Вийшоара","locale":"ru"},{"locale":"ro","name":"Viişoara"}]},{"lat":"48.11627","lng":"27.20491","translations":[{"name":"Volodeni","locale":"en"},{"name":"Володяны","locale":"ru"},{"locale":"ro","name":"Volodeni"}]},{"lat":"48.07364","lng":"27.25265","translations":[{"name":"Zăbriceni","locale":"en"},{"name":"Забричаны","locale":"ru"},{"locale":"ro","name":"Zăbriceni"}]},{"lat":"48.04842","lng":"27.41324","translations":[{"name":"Şofrîncani","locale":"en"},{"name":"Шофрынканы","locale":"ru"},{"locale":"ro","name":"Şofrîncani"}]}],"translations":[{"name":"Raionul Edineţ","locale":"en"},{"name":"Единецкий район","locale":"ru"},{"locale":"ro","name":"Raionul Edineț"}]},{"lat":"47.58333","lng":"27.75","localities":[{"lat":"47.57667","lng":"27.71264","translations":[{"name":"Fălești","locale":"en"},{"name":"Фалешты","locale":"ru"},{"locale":"ro","name":"Fălești"}]},{"lat":"47.58131","lng":"27.61935","translations":[{"name":"Albineţul Nou","locale":"en"},{"name":"Новый Албинец","locale":"ru"},{"locale":"ro","name":"Albineţul Nou"}]},{"lat":"47.559","lng":"27.63544","translations":[{"name":"Albineţul Vechi","locale":"en"},{"name":"Старый Албинец","locale":"ru"},{"locale":"ro","name":"Albineţul Vechi"}]},{"lat":"47.66475","lng":"27.90416","translations":[{"name":"Beleuţi","locale":"en"},{"name":"Beleuţi","locale":"ru"},{"locale":"ro","name":"Beleuţi"}]},{"lat":"47.51915","lng":"27.89242","translations":[{"name":"Bocani","locale":"en"},{"name":"Боканы","locale":"ru"},{"locale":"ro","name":"Bocani"}]},{"lat":"47.47111","lng":"27.64972","translations":[{"name":"Bocșa","locale":"en"},{"name":"Bocșa","locale":"ru"},{"locale":"ro","name":"Bocșa"}]},{"lat":"47.4284","lng":"27.74332","translations":[{"name":"Bulhac","locale":"en"},{"name":"Булгак","locale":"ru"},{"locale":"ro","name":"Bulhac"}]},{"lat":"47.53996","lng":"27.86425","translations":[{"name":"Burghelea","locale":"en"},{"name":"Бургеля","locale":"ru"},{"locale":"ro","name":"Burghelea"}]},{"lat":"47.59621","lng":"27.803","translations":[{"name":"Catranîc","locale":"en"},{"name":"Катранык","locale":"ru"},{"locale":"ro","name":"Catranîc"}]},{"lat":"47.62342","lng":"27.77606","translations":[{"name":"Catranîc","locale":"en"},{"name":"Катранык","locale":"ru"},{"locale":"ro","name":"Catranîc"}]},{"lat":"47.48494","lng":"27.83139","translations":[{"name":"Ciolacu Nou","locale":"en"},{"name":"Новая Челаковка","locale":"ru"},{"locale":"ro","name":"Ciolacu Nou"}]},{"lat":"47.47645","lng":"27.86097","translations":[{"name":"Ciolacu Vechi","locale":"en"},{"name":"Старая Челаковка","locale":"ru"},{"locale":"ro","name":"Ciolacu Vechi"}]},{"lat":"47.63594","lng":"27.78764","translations":[{"name":"Ciuluc","locale":"en"},{"name":"Чулук","locale":"ru"},{"locale":"ro","name":"Ciuluc"}]},{"lat":"47.65355","lng":"27.99337","translations":[{"name":"Coada Iazului","locale":"en"},{"name":"Коада-Язулуй","locale":"ru"},{"locale":"ro","name":"Coada Iazului"}]},{"lat":"47.69038","lng":"27.90573","translations":[{"name":"Comarovca","locale":"en"},{"name":"Комаровка","locale":"ru"},{"locale":"ro","name":"Comarovca"}]},{"lat":"47.51028","lng":"27.55028","translations":[{"name":"Cosmenii Noui","locale":"en"},{"name":"Cosmenii Noui","locale":"ru"},{"locale":"ro","name":"Cosmenii Noui"}]},{"lat":"47.52643","lng":"27.56615","translations":[{"name":"Cuzmenii Vechi","locale":"en"},{"name":"Старые Козьмены","locale":"ru"},{"locale":"ro","name":"Cuzmenii Vechi"}]},{"lat":"47.56315","lng":"27.48592","translations":[{"name":"Călineşti","locale":"en"},{"name":"Калинешты","locale":"ru"},{"locale":"ro","name":"Călineşti"}]},{"lat":"47.54031","lng":"27.68733","translations":[{"name":"Călugăr","locale":"en"},{"name":"Калугэр","locale":"ru"},{"locale":"ro","name":"Călugăr"}]},{"lat":"47.53722","lng":"27.82306","translations":[{"name":"Doltu","locale":"en"},{"name":"Doltu","locale":"ru"},{"locale":"ro","name":"Doltu"}]},{"lat":"47.52531","lng":"27.53219","translations":[{"name":"Drujineni","locale":"en"},{"name":"Дружинены","locale":"ru"},{"locale":"ro","name":"Drujineni"}]},{"lat":"47.61664","lng":"27.75843","translations":[{"name":"Egorovca","locale":"en"},{"name":"Егоровка","locale":"ru"},{"locale":"ro","name":"Egorovca"}]},{"lat":"47.51502","lng":"27.6863","translations":[{"name":"Frumuşica","locale":"en"},{"name":"Фрумушика","locale":"ru"},{"locale":"ro","name":"Frumuşica"}]},{"lat":"47.44221","lng":"27.80294","translations":[{"name":"Făgădău","locale":"en"},{"name":"Фэгэдэу","locale":"ru"},{"locale":"ro","name":"Făgădău"}]},{"lat":"47.57423","lng":"27.74523","translations":[{"name":"Făleştii Noi","locale":"en"},{"name":"Новые Фалешты","locale":"ru"},{"locale":"ro","name":"Făleştii Noi"}]},{"lat":"47.60037","lng":"27.89309","translations":[{"name":"Glinjeni","locale":"en"},{"name":"Глинжены","locale":"ru"},{"locale":"ro","name":"Glinjeni"}]},{"lat":"47.6693","lng":"27.76275","translations":[{"name":"Hiliuţi","locale":"en"},{"name":"Хилиуцы","locale":"ru"},{"locale":"ro","name":"Hiliuţi"}]},{"lat":"47.54844","lng":"27.77603","translations":[{"name":"Hitreşti","locale":"en"},{"name":"Хитрешты","locale":"ru"},{"locale":"ro","name":"Hitreşti"}]},{"lat":"47.43184","lng":"27.58047","translations":[{"name":"Horeşti","locale":"en"},{"name":"Горешты","locale":"ru"},{"locale":"ro","name":"Horeşti"}]},{"lat":"47.40643","lng":"27.61519","translations":[{"name":"Hrubna Nouă","locale":"en"},{"name":"Новая Грубна","locale":"ru"},{"locale":"ro","name":"Hrubna Nouă"}]},{"lat":"47.54896","lng":"27.50234","translations":[{"name":"Hînceşti","locale":"en"},{"name":"Хынчешты","locale":"ru"},{"locale":"ro","name":"Hâncești"}]},{"lat":"47.47969","lng":"27.70696","translations":[{"name":"Hîrtop","locale":"en"},{"name":"Гыртоп","locale":"ru"},{"locale":"ro","name":"Hîrtop"}]},{"lat":"47.63495","lng":"27.7119","translations":[{"name":"Ilenuța","locale":"en"},{"name":"Еленовка","locale":"ru"},{"locale":"ro","name":"Ilenuța"}]},{"lat":"47.65672","lng":"27.87995","translations":[{"name":"Ivanovca","locale":"en"},{"name":"Ивановка","locale":"ru"},{"locale":"ro","name":"Ivanovca"}]},{"lat":"47.43474","lng":"27.66838","translations":[{"name":"Izvoare","locale":"en"},{"name":"Изворы","locale":"ru"},{"locale":"ro","name":"Izvoare"}]},{"lat":"47.57152","lng":"27.82258","translations":[{"name":"Işcălău","locale":"en"},{"name":"Ишкалев","locale":"ru"},{"locale":"ro","name":"Işcălău"}]},{"lat":"47.62389","lng":"27.5681","translations":[{"name":"Logofteni","locale":"en"},{"name":"Логофтены","locale":"ru"},{"locale":"ro","name":"Logofteni"}]},{"lat":"47.45715","lng":"27.59605","translations":[{"name":"Lucăceni","locale":"en"},{"name":"Лукачены","locale":"ru"},{"locale":"ro","name":"Lucăceni"}]},{"lat":"47.62382","lng":"27.61396","translations":[{"name":"Moldoveanca","locale":"en"},{"name":"Молдаванка","locale":"ru"},{"locale":"ro","name":"Moldoveanca"}]},{"lat":"47.51138","lng":"27.64635","translations":[{"name":"Musteaţa","locale":"en"},{"name":"Мустяца","locale":"ru"},{"locale":"ro","name":"Musteaţa"}]},{"lat":"47.48852","lng":"27.9322","translations":[{"name":"Măgura","locale":"en"},{"name":"Мэгура","locale":"ru"},{"locale":"ro","name":"Măgura"}]},{"lat":"47.50613","lng":"27.95185","translations":[{"name":"Măgura Nouă","locale":"en"},{"name":"Новая Мэгура","locale":"ru"},{"locale":"ro","name":"Măgura Nouă"}]},{"lat":"47.66498","lng":"27.83153","translations":[{"name":"Mărăndeni","locale":"en"},{"name":"Марандены","locale":"ru"},{"locale":"ro","name":"Mărăndeni"}]},{"lat":"47.6976","lng":"27.88979","translations":[{"name":"Natalievca","locale":"en"},{"name":"Натальевка","locale":"ru"},{"locale":"ro","name":"Natalievca"}]},{"lat":"47.61181","lng":"28.02048","translations":[{"name":"Nicolaevca","locale":"en"},{"name":"Николаевка","locale":"ru"},{"locale":"ro","name":"Nicolaevca"}]},{"lat":"47.50063","lng":"27.70059","translations":[{"name":"Nicolaevca","locale":"en"},{"name":"Николаевка","locale":"ru"},{"locale":"ro","name":"Nicolaevca"}]},{"lat":"47.58875","lng":"27.5613","translations":[{"name":"Năvîrneţ","locale":"en"},{"name":"Навырнец","locale":"ru"},{"locale":"ro","name":"Năvîrneţ"}]},{"lat":"47.67537","lng":"27.6943","translations":[{"name":"Obreja Nouă","locale":"en"},{"name":"Новоя Обрежа","locale":"ru"},{"locale":"ro","name":"Obreja Nouă"}]},{"lat":"47.67995","lng":"27.66045","translations":[{"name":"Obreja Veche","locale":"en"},{"name":"Старая Обрежа","locale":"ru"},{"locale":"ro","name":"Obreja Veche"}]},{"lat":"47.71422","lng":"27.94972","translations":[{"name":"Octeabrscoe","locale":"en"},{"name":"Октябрьское","locale":"ru"},{"locale":"ro","name":"Octeabrscoe"}]},{"lat":"47.63302","lng":"27.97625","translations":[{"name":"Pervomaisc","locale":"en"},{"name":"Первомайское","locale":"ru"},{"locale":"ro","name":"Pervomaisc"}]},{"lat":"47.50242","lng":"27.92036","translations":[{"name":"Pietrosu","locale":"en"},{"name":"Петрос","locale":"ru"},{"locale":"ro","name":"Pietrosu"}]},{"lat":"47.58207","lng":"27.76865","translations":[{"name":"Pietrosul Nou","locale":"en"},{"name":"Новые Петросы","locale":"ru"},{"locale":"ro","name":"Pietrosul Nou"}]},{"lat":"47.46579","lng":"27.87448","translations":[{"name":"Pocrovca","locale":"en"},{"name":"Покровка","locale":"ru"},{"locale":"ro","name":"Pocrovca"}]},{"lat":"47.65498","lng":"27.94366","translations":[{"name":"Pompa","locale":"en"},{"name":"Pompa","locale":"ru"},{"locale":"ro","name":"Pompa"}]},{"lat":"47.7091","lng":"27.86916","translations":[{"name":"Popovca","locale":"en"},{"name":"Поповка","locale":"ru"},{"locale":"ro","name":"Popovca"}]},{"lat":"47.49843","lng":"27.55168","translations":[{"name":"Pruteni","locale":"en"},{"name":"Прутень","locale":"ru"},{"locale":"ro","name":"Pruteni"}]},{"lat":"47.62027","lng":"27.67791","translations":[{"name":"Pînzăreni","locale":"en"},{"name":"Пынзарены","locale":"ru"},{"locale":"ro","name":"Pînzăreni"}]},{"lat":"47.60269","lng":"27.64374","translations":[{"name":"Pînzărenii Noi","locale":"en"},{"name":"Новые Пынзарены","locale":"ru"},{"locale":"ro","name":"Pînzărenii Noi"}]},{"lat":"47.74079","lng":"27.80486","translations":[{"name":"Pîrliţa","locale":"en"},{"name":"Пырлица","locale":"ru"},{"locale":"ro","name":"Pîrliţa"}]},{"lat":"47.51013","lng":"27.60159","translations":[{"name":"Rediul de Jos","locale":"en"},{"name":"Редю Второй","locale":"ru"},{"locale":"ro","name":"Rediul de Jos"}]},{"lat":"47.52578","lng":"27.60711","translations":[{"name":"Rediul de Sus","locale":"en"},{"name":"Редю Первый","locale":"ru"},{"locale":"ro","name":"Rediul de Sus"}]},{"lat":"47.46084","lng":"27.66577","translations":[{"name":"Risipeni","locale":"en"},{"name":"Рисипены","locale":"ru"},{"locale":"ro","name":"Risipeni"}]},{"lat":"47.71319","lng":"27.82583","translations":[{"name":"Răuţel","locale":"en"},{"name":"Реуцел","locale":"ru"},{"locale":"ro","name":"Răuţel"}]},{"lat":"47.70104","lng":"27.74613","translations":[{"name":"Răuţelul Nou","locale":"en"},{"name":"Новый Реуцел","locale":"ru"},{"locale":"ro","name":"Răuţelul Nou"}]},{"lat":"47.47038","lng":"27.7374","translations":[{"name":"Scumpia","locale":"en"},{"name":"Скумпия","locale":"ru"},{"locale":"ro","name":"Scumpia"}]},{"lat":"47.48613","lng":"27.96459","translations":[{"name":"Slobozia-Măgura","locale":"en"},{"name":"Слобода-Мэгура","locale":"ru"},{"locale":"ro","name":"Slobozia-Măgura"}]},{"lat":"47.53737","lng":"27.64594","translations":[{"name":"Socii Noi","locale":"en"},{"name":"Новые Сочи","locale":"ru"},{"locale":"ro","name":"Socii Noi"}]},{"lat":"47.52552","lng":"27.67704","translations":[{"name":"Socii Vechi","locale":"en"},{"name":"Старые Сочи","locale":"ru"},{"locale":"ro","name":"Socii Vechi"}]},{"lat":"47.6407","lng":"27.88974","translations":[{"name":"Suvorovca","locale":"en"},{"name":"Суворовка","locale":"ru"},{"locale":"ro","name":"Suvorovca"}]},{"lat":"47.4993","lng":"27.79135","translations":[{"name":"Sărata Nouă","locale":"en"},{"name":"Новая Сарата","locale":"ru"},{"locale":"ro","name":"Sărata Nouă"}]},{"lat":"47.50259","lng":"27.74709","translations":[{"name":"Sărata Veche","locale":"en"},{"name":"Старая Сарата","locale":"ru"},{"locale":"ro","name":"Sărata Veche"}]},{"lat":"47.38938","lng":"27.59047","translations":[{"name":"Taxobeni","locale":"en"},{"name":"Таксобены","locale":"ru"},{"locale":"ro","name":"Taxobeni"}]},{"lat":"47.54875","lng":"27.90402","translations":[{"name":"Tăura Nouă","locale":"en"},{"name":"Новая Теура","locale":"ru"},{"locale":"ro","name":"Tăura Nouă"}]},{"lat":"47.41612","lng":"27.57898","translations":[{"name":"Unteni","locale":"en"},{"name":"Унтень","locale":"ru"},{"locale":"ro","name":"Unteni"}]},{"lat":"47.47386","lng":"27.58572","translations":[{"name":"Valea Rusului","locale":"en"},{"name":"Валя-Русулуй","locale":"ru"},{"locale":"ro","name":"Valea Rusului"}]},{"lat":"47.40868","lng":"27.59996","translations":[{"name":"Vrăneşti","locale":"en"},{"name":"Врынешты","locale":"ru"},{"locale":"ro","name":"Vrăneşti"}]},{"lat":"47.45734","lng":"27.81446","translations":[{"name":"Şoltoaia","locale":"en"},{"name":"Шолтоая","locale":"ru"},{"locale":"ro","name":"Şoltoaia"}]},{"lat":"47.69689","lng":"27.92447","translations":[{"name":"Ţambula","locale":"en"},{"name":"Цамбула","locale":"ru"},{"locale":"ro","name":"Ţambula"}]},{"lat":"47.7082","lng":"27.89638","translations":[{"name":"Ţapoc","locale":"en"},{"name":"Цапок","locale":"ru"},{"locale":"ro","name":"Ţapoc"}]},{"lat":"47.44642","lng":"27.89993","translations":[{"name":"Ţîghira","locale":"en"},{"name":"Цыгира","locale":"ru"},{"locale":"ro","name":"Ţîghira"}]}],"translations":[{"name":"Fălești","locale":"en"},{"name":"Фалештский район","locale":"ru"},{"locale":"ro","name":"Raionul Făleşti"}]},{"lat":"46.83333","lng":"28.41667","localities":[{"lat":"46.83047","lng":"28.59064","translations":[{"name":"Hînceşti","locale":"en"},{"name":"Хынчешты","locale":"ru"},{"locale":"ro","name":"Hînceşti"}]},{"lat":"46.8899","lng":"28.4643","translations":[{"name":"Anini","locale":"en"},{"name":"Анены","locale":"ru"},{"locale":"ro","name":"Anini"}]},{"lat":"46.96407","lng":"28.30795","translations":[{"name":"Boghiceni","locale":"en"},{"name":"Богичены","locale":"ru"},{"locale":"ro","name":"Boghiceni"}]},{"lat":"46.74997","lng":"28.64599","translations":[{"name":"Bozieni","locale":"en"},{"name":"Бозиены","locale":"ru"},{"locale":"ro","name":"Bozieni"}]},{"lat":"46.73979","lng":"28.46309","translations":[{"name":"Brătianovca","locale":"en"},{"name":"Братьяновка","locale":"ru"},{"locale":"ro","name":"Brătianovca"}]},{"lat":"46.92444","lng":"28.26293","translations":[{"name":"Bujor","locale":"en"},{"name":"Бужор","locale":"ru"},{"locale":"ro","name":"Bujor"}]},{"lat":"46.82559","lng":"28.67343","translations":[{"name":"Buţeni","locale":"en"},{"name":"Буцены","locale":"ru"},{"locale":"ro","name":"Buţeni"}]},{"lat":"46.84475","lng":"28.40874","translations":[{"name":"Bălceana","locale":"en"},{"name":"Болчаны","locale":"ru"},{"locale":"ro","name":"Bălceana"}]},{"lat":"46.69997","lng":"28.54286","translations":[{"name":"Caracui","locale":"en"},{"name":"Каракуй","locale":"ru"},{"locale":"ro","name":"Caracui"}]},{"lat":"46.96253","lng":"28.27033","translations":[{"name":"Chetroşeni","locale":"en"},{"name":"Кетрошены","locale":"ru"},{"locale":"ro","name":"Chetroşeni"}]},{"lat":"46.97639","lng":"28.27167","translations":[{"name":"Chetroşenii Noi","locale":"en"},{"name":"Chetroşenii Noi","locale":"ru"},{"locale":"ro","name":"Chetroşenii Noi"}]},{"lat":"46.73495","lng":"28.22243","translations":[{"name":"Cioara","locale":"en"},{"name":"Чоара","locale":"ru"},{"locale":"ro","name":"Cioara"}]},{"lat":"47.02257","lng":"28.40904","translations":[{"name":"Ciuciuleni","locale":"en"},{"name":"Чучулены","locale":"ru"},{"locale":"ro","name":"Ciuciuleni"}]},{"lat":"47","lng":"28.32784","translations":[{"name":"Corneşti","locale":"en"},{"name":"Корнешты","locale":"ru"},{"locale":"ro","name":"Corneşti"}]},{"lat":"46.71086","lng":"28.47128","translations":[{"name":"Coroliovca","locale":"en"},{"name":"Королевка","locale":"ru"},{"locale":"ro","name":"Coroliovca"}]},{"lat":"46.87372","lng":"28.20592","translations":[{"name":"Costeşti","locale":"en"},{"name":"Костешты","locale":"ru"},{"locale":"ro","name":"Costeşti"}]},{"lat":"46.86987","lng":"28.11807","translations":[{"name":"Cotul Morii","locale":"en"},{"name":"Котул-Морий","locale":"ru"},{"locale":"ro","name":"Cotul Morii"}]},{"lat":"46.82034","lng":"28.27458","translations":[{"name":"Crasnoarmeiscoe","locale":"en"},{"name":"Красноармейское","locale":"ru"},{"locale":"ro","name":"Crasnoarmeiscoe"}]},{"lat":"46.78386","lng":"28.21142","translations":[{"name":"Călmăţui","locale":"en"},{"name":"Калмацуй","locale":"ru"},{"locale":"ro","name":"Călmăţui"}]},{"lat":"46.6962","lng":"28.47098","translations":[{"name":"Cărpineanca","locale":"en"},{"name":"Карпинянка","locale":"ru"},{"locale":"ro","name":"Cărpineanca"}]},{"lat":"46.7647","lng":"28.34427","translations":[{"name":"Cărpineni","locale":"en"},{"name":"Карпинены","locale":"ru"},{"locale":"ro","name":"Cărpineni"}]},{"lat":"46.92223","lng":"28.18386","translations":[{"name":"Căţeleni","locale":"en"},{"name":"Кацалены","locale":"ru"},{"locale":"ro","name":"Căţeleni"}]},{"lat":"46.97416","lng":"28.48307","translations":[{"name":"Dahnovici","locale":"en"},{"name":"Дахнович","locale":"ru"},{"locale":"ro","name":"Dahnovici"}]},{"lat":"46.75818","lng":"28.20716","translations":[{"name":"Dancu","locale":"en"},{"name":"Данку","locale":"ru"},{"locale":"ro","name":"Dancu"}]},{"lat":"46.98277","lng":"28.44684","translations":[{"name":"Drăguşeni","locale":"en"},{"name":"Драгушены","locale":"ru"},{"locale":"ro","name":"Drăguşeni"}]},{"lat":"47.04579","lng":"28.42425","translations":[{"name":"Drăguşenii Noi","locale":"en"},{"name":"Новые Драгушены","locale":"ru"},{"locale":"ro","name":"Drăguşenii Noi"}]},{"lat":"46.74914","lng":"28.60741","translations":[{"name":"Dubovca","locale":"en"},{"name":"Дубовка","locale":"ru"},{"locale":"ro","name":"Dubovca"}]},{"lat":"46.78813","lng":"28.1898","translations":[{"name":"Feteasca","locale":"en"},{"name":"Фетяска","locale":"ru"},{"locale":"ro","name":"Feteasca"}]},{"lat":"46.88924","lng":"28.19429","translations":[{"name":"Frasin","locale":"en"},{"name":"Frasin","locale":"ru"},{"locale":"ro","name":"Frasin"}]},{"lat":"46.88018","lng":"28.62757","translations":[{"name":"Fundul Galbenei","locale":"en"},{"name":"Фундул-Галбеней","locale":"ru"},{"locale":"ro","name":"Fundul Galbenei"}]},{"lat":"46.78626","lng":"28.69033","translations":[{"name":"Fîrlădeni","locale":"en"},{"name":"Фырладены","locale":"ru"},{"locale":"ro","name":"Fîrlădeni"}]},{"lat":"46.71324","lng":"28.34652","translations":[{"name":"Horjeşti","locale":"en"},{"name":"Хоржешты","locale":"ru"},{"locale":"ro","name":"Horjeşti"}]},{"lat":"47.04577","lng":"28.48958","translations":[{"name":"Horodca","locale":"en"},{"name":"Городка","locale":"ru"},{"locale":"ro","name":"Horodca"}]},{"lat":"46.89449","lng":"28.18562","translations":[{"name":"Ivanovca","locale":"en"},{"name":"Ивановка","locale":"ru"},{"locale":"ro","name":"Ivanovca"}]},{"lat":"46.66972","lng":"28.30667","translations":[{"name":"Kokocheny","locale":"en"},{"name":"Kokocheny","locale":"ru"},{"locale":"ro","name":"Kokocheny"}]},{"lat":"46.81169","lng":"28.19695","translations":[{"name":"Leuşeni","locale":"en"},{"name":"Леушены","locale":"ru"},{"locale":"ro","name":"Leuşeni"}]},{"lat":"46.90528","lng":"28.54434","translations":[{"name":"Logăneşti","locale":"en"},{"name":"Логанешты","locale":"ru"},{"locale":"ro","name":"Logăneşti"}]},{"lat":"46.88673","lng":"28.41187","translations":[{"name":"Lăpuşna","locale":"en"},{"name":"Лапушна","locale":"ru"},{"locale":"ro","name":"Lăpuşna"}]},{"lat":"46.7015","lng":"28.2314","translations":[{"name":"Market","locale":"en"},{"name":"Маркет","locale":"ru"},{"locale":"ro","name":"Marchet"}]},{"lat":"46.79508","lng":"28.54158","translations":[{"name":"Mereşeni","locale":"en"},{"name":"Мерешены","locale":"ru"},{"locale":"ro","name":"Mereşeni"}]},{"lat":"46.66929","lng":"28.32927","translations":[{"name":"Mingir","locale":"en"},{"name":"Минжир","locale":"ru"},{"locale":"ro","name":"Mingir"}]},{"lat":"46.969","lng":"28.25407","translations":[{"name":"Mireşti","locale":"en"},{"name":"Мирешты","locale":"ru"},{"locale":"ro","name":"Mireşti"}]},{"lat":"46.96333","lng":"28.37667","translations":[{"name":"Mlădineşti","locale":"en"},{"name":"Mlădineşti","locale":"ru"},{"locale":"ro","name":"Mlădineşti"}]},{"lat":"46.81016","lng":"28.39402","translations":[{"name":"Negrea","locale":"en"},{"name":"Негря","locale":"ru"},{"locale":"ro","name":"Negrea"}]},{"lat":"46.90552","lng":"28.12193","translations":[{"name":"Nemţeni","locale":"en"},{"name":"Немцены","locale":"ru"},{"locale":"ro","name":"Nemţeni"}]},{"lat":"46.87835","lng":"28.16305","translations":[{"name":"Obileni","locale":"en"},{"name":"Обилены","locale":"ru"},{"locale":"ro","name":"Obileni"}]},{"lat":"46.86222","lng":"28.25128","translations":[{"name":"Oneşti","locale":"en"},{"name":"Онешты","locale":"ru"},{"locale":"ro","name":"Oneşti"}]},{"lat":"46.85389","lng":"28.245","translations":[{"name":"Oneştii Noi","locale":"en"},{"name":"Oneştii Noi","locale":"ru"},{"locale":"ro","name":"Oneştii Noi"}]},{"lat":"46.97729","lng":"28.36668","translations":[{"name":"Paşcani","locale":"en"},{"name":"Пашканы","locale":"ru"},{"locale":"ro","name":"Paşcani"}]},{"lat":"47.00162","lng":"28.37511","translations":[{"name":"Pereni","locale":"en"},{"name":"Перены","locale":"ru"},{"locale":"ro","name":"Pereni"}]},{"lat":"46.88236","lng":"28.3205","translations":[{"name":"Pervomaiscoe","locale":"en"},{"name":"Первомайское","locale":"ru"},{"locale":"ro","name":"Pervomaiscoe"}]},{"lat":"46.87611","lng":"28.47639","translations":[{"name":"Rusca","locale":"en"},{"name":"Rusca","locale":"ru"},{"locale":"ro","name":"Rusca"}]},{"lat":"46.91943","lng":"28.62523","translations":[{"name":"Ruseştii Vechi","locale":"en"},{"name":"Старые Русешты","locale":"ru"},{"locale":"ro","name":"Ruseştii Vechi"}]},{"lat":"47.0264","lng":"28.33235","translations":[{"name":"Secăreni","locale":"en"},{"name":"Секарены","locale":"ru"},{"locale":"ro","name":"Secăreni"}]},{"lat":"47.01806","lng":"28.32944","translations":[{"name":"Secăreni Noi","locale":"en"},{"name":"Secăreni Noi","locale":"ru"},{"locale":"ro","name":"Secăreni Noi"}]},{"lat":"46.69834","lng":"28.30389","translations":[{"name":"Semionovca","locale":"en"},{"name":"Семеновка","locale":"ru"},{"locale":"ro","name":"Semionovca"}]},{"lat":"46.84401","lng":"28.37623","translations":[{"name":"Sofia","locale":"en"},{"name":"София","locale":"ru"},{"locale":"ro","name":"Sofia"}]},{"lat":"46.96081","lng":"28.50002","translations":[{"name":"Stolniceni","locale":"en"},{"name":"Стольничены","locale":"ru"},{"locale":"ro","name":"Stolniceni"}]},{"lat":"46.86539","lng":"28.26171","translations":[{"name":"Strîmbeni","locale":"en"},{"name":"Стрымбены","locale":"ru"},{"locale":"ro","name":"Strîmbeni"}]},{"lat":"46.80053","lng":"28.50215","translations":[{"name":"Sărata Mereşeni","locale":"en"},{"name":"Сарата-Мерешены","locale":"ru"},{"locale":"ro","name":"Sărata Mereşeni"}]},{"lat":"46.73469","lng":"28.51561","translations":[{"name":"Sărata-Galbenă","locale":"en"},{"name":"Сарата-Галбенэ","locale":"ru"},{"locale":"ro","name":"Sărata-Galbenă"}]},{"lat":"46.8576","lng":"28.16729","translations":[{"name":"Sărăteni","locale":"en"},{"name":"Саратены","locale":"ru"},{"locale":"ro","name":"Sărăteni"}]},{"lat":"46.80028","lng":"28.26639","translations":[{"name":"Tălăieşti","locale":"en"},{"name":"Tălăieşti","locale":"ru"},{"locale":"ro","name":"Tălăieşti"}]},{"lat":"46.79528","lng":"28.26889","translations":[{"name":"Tălăieştii-Noi","locale":"en"},{"name":"Tălăieştii-Noi","locale":"ru"},{"locale":"ro","name":"Tălăieştii-Noi"}]},{"lat":"46.81417","lng":"28.28139","translations":[{"name":"Tălăieştii-Vechi","locale":"en"},{"name":"Tălăieştii-Vechi","locale":"ru"},{"locale":"ro","name":"Tălăieştii-Vechi"}]},{"lat":"46.64882","lng":"28.29976","translations":[{"name":"Voinescu","locale":"en"},{"name":"Победа","locale":"ru"},{"locale":"ro","name":"Voinescu"}]},{"lat":"46.94193","lng":"28.45353","translations":[{"name":"Şipoteni","locale":"en"},{"name":"Спариец","locale":"ru"},{"locale":"ro","name":"Şipoteni"}]},{"lat":"46.69249","lng":"28.23192","translations":[{"name":"Pogăneşti","locale":"en"},{"name":"Поганешты","locale":"ru"},{"locale":"ro","name":"Pogăneşti"}]}],"translations":[{"name":"Hînceşti","locale":"en"},{"name":"Хынчештский район","locale":"ru"},{"locale":"ro","name":"Raionul Hîncești"}]},{"lat":"46.83333","lng":"28.83333","localities":[{"lat":"46.94346","lng":"28.78233","translations":[{"name":"Ialoveni","locale":"en"},{"name":"Кутузов","locale":"ru"},{"locale":"ro","name":"Ialoveni"}]},{"lat":"46.72587","lng":"29.0206","translations":[{"name":"Alexandrovca","locale":"en"},{"name":"Александровка","locale":"ru"},{"locale":"ro","name":"Alexandrovca"}]},{"lat":"46.90273","lng":"28.66982","translations":[{"name":"Bardar","locale":"en"},{"name":"Bardar","locale":"ru"},{"locale":"ro","name":"Bardar"}]},{"lat":"46.91233","lng":"28.84293","translations":[{"name":"Brăila","locale":"en"},{"name":"Браила","locale":"ru"},{"locale":"ro","name":"Brăila"}]},{"lat":"46.81272","lng":"28.97434","translations":[{"name":"Budăi","locale":"en"},{"name":"Будей","locale":"ru"},{"locale":"ro","name":"Budăi"}]},{"lat":"46.84195","lng":"28.95321","translations":[{"name":"Bălţaţi","locale":"en"},{"name":"Балцац","locale":"ru"},{"locale":"ro","name":"Bălţaţi"}]},{"lat":"46.75615","lng":"28.82803","translations":[{"name":"Cigîrleni","locale":"en"},{"name":"Чигырляны","locale":"ru"},{"locale":"ro","name":"Cigîrleni"}]},{"lat":"46.86549","lng":"28.76235","translations":[{"name":"Costeşti","locale":"en"},{"name":"Костешты","locale":"ru"},{"locale":"ro","name":"Costeşti"}]},{"lat":"46.71173","lng":"28.95396","translations":[{"name":"Cărbuna","locale":"en"},{"name":"Карбуна","locale":"ru"},{"locale":"ro","name":"Cărbuna"}]},{"lat":"46.96372","lng":"28.70567","translations":[{"name":"Dănceni","locale":"en"},{"name":"Данчены","locale":"ru"},{"locale":"ro","name":"Dănceni"}]},